# LAS format log file from PETREL
# Project units are specified as depth units
#==================================================================
~Version information
VERS.   2.0:
WRAP.   NO:
#==================================================================
~Well
STRT .m      5420.0000000 :
STOP .m      7109.0000000 :
STEP .m     0.50000000 :
NULL .        -999.250000 :
COMP.           : COMPANY
WELL.  423673457600   : WELL
FLD.            : FIELD
LOC.            : LOCATION
SRVC.           : SERVICE COMPANY
DATE.  2016-03-15 13:19:34   : Log Export Date {yyyy-MM-dd HH:mm:ss}
PROV.           : PROVINCE
UWI.      : UNIQUE WELL ID
API.            : API NUMBER
#==================================================================
~Curve
DEPT .m                   : DEPTH
DEPT .m                   : DEPT
RHOB .g/cm3               : RHOB
PEF .b/e                  : PEF
NPHI .m3/m3               : NPHI
GR .gAPI                  : GR
AT90 .ohm.m               : AT90
~Parameter
#==================================================================
~Ascii
# ...
 5724.5000000 5724.5000000 2.4579699039 2.5943601131 0.2300000042 0.8330299854 5735.2192383
 5725.0000000 5725.0000000 2.4747400284 2.5421400070 0.2300000042 0.8287400007 5735.2729492
 5725.5000000 5725.5000000 2.4876101017 2.5585799217 0.2300000042 0.8254799843 5735.3276367
 5726.0000000 5726.0000000 2.4930799007 2.5898499489 0.2300000042 0.8252300024 5735.3823242
 5726.5000000 5726.5000000 2.4847900867 2.5795500278 0.2300000042 0.8284299970 5735.4370117
 5727.0000000 5727.0000000 2.4717600346 2.5729100704 0.2300000042 0.8393800259 5735.4912109
 5727.5000000 5727.5000000 2.4584300518 2.5692000389 0.2300000042 0.8410800099 5735.5454102
 5728.0000000 5728.0000000 2.4535501003 2.5676200390 0.2300000042 0.8428999782 5735.5991211
 5728.5000000 5728.5000000 2.4562299252 2.5388300419 0.2300000042 0.8398500085 5735.6523438
 5729.0000000 5729.0000000 2.4649200439 2.5415000916 0.2300000042 0.8428099751 5735.7055664
 5729.5000000 5729.5000000 2.4796299934 2.5851199627 0.2300000042 0.8455600142 5735.7587891
 5730.0000000 5730.0000000 2.4904899597 2.6534700394 0.2300000042 0.8421999812 5735.8125000
 5730.5000000 5730.5000000 2.4944100380 2.6920700073 0.2300000042 0.8452200294 5735.8662109
 5731.0000000 5731.0000000 2.4851698875 2.6833798885 0.2300000042 0.8389000297 5735.9199219
 5731.5000000 5731.5000000 2.4782500267 2.6107499599 0.2300000042 0.8487200141 5735.9736328
 5732.0000000 5732.0000000 2.4798800945 2.5027999878 0.2300000042 0.8399199843 5736.0263672
 5732.5000000 5732.5000000 2.4987099171 2.5144200325 0.2300000042 0.8475300074 5736.0791016
 5733.0000000 5733.0000000 2.5236198902 2.5271599293 0.2300000042 0.8565599918 5736.1323242
 5733.5000000 5733.5000000 2.5368499756 2.5678200722 0.2300000042 0.8564800024 5736.1860352
 5734.0000000 5734.0000000 2.5269401073 2.6048600674 0.2300000042 0.8605499864 5736.2397461
 5734.5000000 5734.5000000 2.5014400482 2.6891500950 0.2300000042 0.8497700095 5736.2934570
 5735.0000000 5735.0000000 2.4834001064 2.6883099079 0.2300000042 0.8530600071 5736.3461914
 5735.5000000 5735.5000000 2.4763300419 2.6355700493 0.2300000042 0.8702099919 5736.3989258
 5736.0000000 5736.0000000 2.4701600075 2.5707199574 0.2300000042 0.8565499783 5736.4506836
 5736.5000000 5736.5000000 2.4584701061 2.4965600967 0.2300000042 0.8367800117 5736.5029297
 5737.0000000 5737.0000000 2.4407300949 2.5620400906 0.2300000042 0.8155599833 5736.5541992
 5737.5000000 5737.5000000 2.4336600304 2.6725299358 0.2300000042 0.8123099804 5736.6054688
 5738.0000000 5738.0000000 2.4419798851 2.7452199459 0.2300000042 0.8200100064 5736.6562500
 5738.5000000 5738.5000000 2.4741599560 2.7679600716 0.2300000042 0.8605399728 5736.7070313
 5739.0000000 5739.0000000 2.5063099861 2.6656699181 0.2300000042 0.8667600155 5736.7583008
 5739.5000000 5739.5000000 2.5235600471 2.7422299385 0.2300000042 0.8597099781 5736.8100586
 5740.0000000 5740.0000000 2.5118598938 2.7420799732 0.2300000042 0.8353700042 5736.8623047
 5740.5000000 5740.5000000 2.5096600056 2.7357800007 0.2300000042 0.8270499706 5736.9135742
 5741.0000000 5741.0000000 2.5074601173 2.5792698860 0.2300000042 0.8394399881 5736.9653320
 5741.5000000 5741.5000000 2.5052700043 2.4092400074 0.2300000042 0.8330600262 5737.0166016
 5742.0000000 5742.0000000 2.5030701160 2.3395600319 0.2300000042 0.8352400064 5737.0678711
 5742.5000000 5742.5000000 2.5008699894 2.4146800041 0.2300000042 0.8284999728 5737.1186523
 5743.0000000 5743.0000000 2.4977300167 2.5004899502 0.2300000042 0.8259999752 5737.1694336
 5743.5000000 5743.5000000 2.4971199036 2.5805299282 0.2300000042 0.8398000002 5737.2197266
 5744.0000000 5744.0000000 2.4977600574 2.5527100563 0.2300000042 0.8399099708 5737.2700195
 5744.5000000 5744.5000000 2.4983999729 2.5999000072 0.2300000042 0.8251199722 5737.3203125
 5745.0000000 5745.0000000 2.4990398884 2.5781199932 0.2300000042 0.8189100027 5737.3701172
 5745.5000000 5745.5000000 2.5019700527 2.5822200775 0.2300000042 0.8158599734 5737.4199219
 5746.0000000 5746.0000000 2.4969699383 2.5721600056 0.2300000042 0.8395799994 5737.4697266
 5746.5000000 5746.5000000 2.4934000969 2.5252399445 0.2300000042 0.8586099744 5737.5195313
 5747.0000000 5747.0000000 2.4816598892 2.5143599510 0.2300000042 0.8672500253 5737.5688477
 5747.5000000 5747.5000000 2.4660499096 2.5892300606 0.2300000042 0.8591600060 5737.6176758
 5748.0000000 5748.0000000 2.4499900341 2.5842800140 0.2300000042 0.8676300049 5737.6665039
 5748.5000000 5748.5000000 2.4430599213 2.6527099609 0.2300000042 0.8528199792 5737.7148438
 5749.0000000 5749.0000000 2.4402899742 2.6841199398 0.2300000042 0.8465999961 5737.7626953
 5749.5000000 5749.5000000 2.4398500919 2.6805100441 0.2300000042 0.8634099960 5737.8100586
 5750.0000000 5750.0000000 2.4382801056 2.6413800716 0.2300000042 0.8911200166 5737.8574219
 5750.5000000 5750.5000000 2.4367098808 2.5657699108 0.2300000042 0.8955199718 5737.9047852
 5751.0000000 5751.0000000 2.4351398945 2.5659799576 0.2300000042 0.8874599934 5737.9521484
 5751.5000000 5751.5000000 2.4362199306 2.6083600521 0.2300000042 0.8690400124 5737.9990234
 5752.0000000 5752.0000000 2.4424700737 2.6926898956 0.2300000042 0.8354399800 5738.0458984
 5752.5000000 5752.5000000 2.4528300762 2.7264800072 0.2300000042 0.8207799792 5738.0927734
 5753.0000000 5753.0000000 2.4622900486 2.7352499962 0.2300000042 0.8240900040 5738.1396484
 5753.5000000 5753.5000000 2.4685699940 2.7847499847 0.2300000042 0.8478199840 5738.1865234
 5754.0000000 5754.0000000 2.4767200947 2.8016500473 0.2300000042 0.8643400073 5738.2333984
 5754.5000000 5754.5000000 2.4865798950 2.8503301144 0.2300000042 0.8609700203 5738.2802734
 5755.0000000 5755.0000000 2.4871799946 2.9128499031 0.2300000042 0.8830100298 5738.3276367
 5755.5000000 5755.5000000 2.4714999199 2.9938700199 0.2300000042 0.8288000226 5738.3745117
 5756.0000000 5756.0000000 2.4468200207 2.9973599911 0.2300000042 0.8183599710 5738.4208984
 5756.5000000 5756.5000000 2.4292199612 2.9739201069 0.2300000042 0.8784999847 5738.4663086
 5757.0000000 5757.0000000 2.4308199883 2.8991498947 0.2300000042 0.8962600231 5738.5117188
 5757.5000000 5757.5000000 2.4459199905 2.7833700180 0.2300000042 0.9177600145 5738.5571289
 5758.0000000 5758.0000000 2.4663898945 2.6722099781 0.2300000042 0.9105299711 5738.6020508
 5758.5000000 5758.5000000 2.4685499668 2.5146899223 0.2300000042 0.8898900151 5738.6479492
 5759.0000000 5759.0000000 2.4497199059 2.5023999214 0.2300000042 0.8774600029 5738.6933594
 5759.5000000 5759.5000000 2.4213399887 2.5410799980 0.2300000042 0.8646600246 5738.7377930
 5760.0000000 5760.0000000 2.4155700207 2.6755199432 0.2300000042 0.8696699739 5738.7822266
 5760.5000000 5760.5000000 2.4441499710 2.7934300900 0.2300000042 0.8631399870 5738.8261719
 5761.0000000 5761.0000000 2.4938299656 2.8305099010 0.2300000042 0.8598499894 5738.8706055
 5761.5000000 5761.5000000 2.5323998928 2.8683400154 0.2300000042 0.8654099703 5738.9160156
 5762.0000000 5762.0000000 2.5517299175 2.8024599552 0.2300000042 0.8556100130 5738.9619141
 5762.5000000 5762.5000000 2.5540299416 2.8365800381 0.2300000042 0.8689799905 5739.0078125
 5763.0000000 5763.0000000 2.5552499294 2.9522199631 0.2300000042 0.8709300160 5739.0532227
 5763.5000000 5763.5000000 2.5556399822 2.9539799690 0.2300000042 0.8909100294 5739.0991211
 5764.0000000 5764.0000000 2.5636599064 3.0606501102 0.2300000042 0.8790599704 5739.1450195
 5764.5000000 5764.5000000 2.5786099434 3.0728700161 0.2300000042 0.8722000122 5739.1904297
 5765.0000000 5765.0000000 2.5934200287 3.1137199402 0.2300000042 0.8691099882 5739.2363281
 5765.5000000 5765.5000000 2.5986599922 3.1130700111 0.2300000042 0.8691999912 5739.2817383
 5766.0000000 5766.0000000 2.5937399864 3.0595200062 0.2300000042 0.8643699884 5739.3276367
 5766.5000000 5766.5000000 2.5854799747 3.0902900696 0.2300000042 0.8645099998 5739.3725586
 5767.0000000 5767.0000000 2.5772199631 2.9986701012 0.2300000042 0.8522999883 5739.4179688
 5767.5000000 5767.5000000 2.5689599514 2.8819999695 0.2300000042 0.8542000055 5739.4628906
