# LAS format log file from PETREL
# Project units are specified as depth units
#==================================================================
~Version information
VERS.   2.0:
WRAP.   NO:
#==================================================================
~Well
STRT .m      5420.0000000 :
STOP .m      7109.0000000 :
STEP .m     0.50000000 :
NULL .        -999.250000 :
COMP.           : COMPANY
WELL.  423673457600   : WELL
FLD.            : FIELD
LOC.            : LOCATION
SRVC.           : SERVICE COMPANY
DATE.  2016-03-15 13:19:34   : Log Export Date {yyyy-MM-dd HH:mm:ss}
PROV.           : PROVINCE
UWI.      : UNIQUE WELL ID
API.            : API NUMBER
#==================================================================
~Curve
DEPT .m                   : DEPTH
DEPT .m                   : DEPT
RHOB .g/cm3               : RHOB
PEF .b/e                  : PEF
NPHI .m3/m3               : NPHI
GR .gAPI                  : GR
AT90 .ohm.m               : AT90
~Parameter
#==================================================================
~Ascii
# ...
 6246.5000000 6246.5000000 2.5394399166 2.9395198822 0.2300000042 0.8521800041 5730.2763672
 6247.0000000 6247.0000000 2.5348200798 2.9381198883 0.2300000042 0.8521800041 5730.2583008
 6247.5000000 6247.5000000 2.5217199326 2.9288799763 0.2300000042 0.8520699739 5730.2397461
 6248.0000000 6248.0000000 2.5005900860 2.9185900688 0.2300000042 0.8520699739 5730.2216797
 6248.5000000 6248.5000000 2.4847099781 2.8660099506 0.2300000042 0.8596799970 5730.2036133
 6249.0000000 6249.0000000 2.4852600098 2.8224699497 0.2300000042 0.8737000227 5730.1855469
 6249.5000000 6249.5000000 2.4911398888 2.7838900089 0.2300000042 0.8664000034 5730.1669922
 6250.0000000 6250.0000000 2.4893000126 2.7806599140 0.2300000042 0.8527100086 5730.1489258
 6250.5000000 6250.5000000 2.4741899967 2.7743699551 0.2300000042 0.8495100141 5730.1308594
 6251.0000000 6251.0000000 2.4538600445 2.8045399189 0.2300000042 0.8524199724 5730.1127930
 6251.5000000 6251.5000000 2.4340701103 2.7979600430 0.2300000042 0.8753399849 5730.0947266
 6252.0000000 6252.0000000 2.4167098999 2.7831399441 0.2300000042 0.8968399763 5730.0766602
 6252.5000000 6252.5000000 2.4193201065 2.7402698994 0.2300000042 0.8980900049 5730.0590820
 6253.0000000 6253.0000000 2.4453999996 2.7105998993 0.2300000042 0.8885300159 5730.0410156
 6253.5000000 6253.5000000 2.4890999794 2.7522399426 0.2300000042 0.8642799854 5730.0229492
 6254.0000000 6254.0000000 2.5140900612 2.7950100899 0.2300000042 0.8452500105 5730.0043945
 6254.5000000 6254.5000000 2.5134499073 2.8461699486 0.2300000042 0.8528299928 5729.9858398
 6255.0000000 6255.0000000 2.4974100590 2.8684499264 0.2300000042 0.8719999790 5729.9672852
 6255.5000000 6255.5000000 2.4892199039 2.8170099258 0.2300000042 0.8751400113 5729.9487305
 6256.0000000 6256.0000000 2.4909501076 2.7727999687 0.2300000042 0.8589400053 5729.9301758
 6256.5000000 6256.5000000 2.5092799664 2.7360699177 0.2300000042 0.8564299941 5729.9116211
 6257.0000000 6257.0000000 2.5419600010 2.8252499104 0.2300000042 0.8683999777 5729.8925781
 6257.5000000 6257.5000000 2.5805099010 2.9662399292 0.2300000042 0.8859500289 5729.8735352
 6258.0000000 6258.0000000 2.5986099243 2.9672200680 0.2300000042 0.8859500289 5729.8540039
 6258.5000000 6258.5000000 2.5936899185 2.8758299351 0.2300000042 0.8761799932 5729.8339844
 6259.0000000 6259.0000000 2.5776100159 2.7391200066 0.2300000042 0.8656399846 5729.8139648
 6259.5000000 6259.5000000 2.5647099018 2.7250599861 0.2300000042 0.8729000092 5729.7949219
 6260.0000000 6260.0000000 2.5637300014 2.8629500866 0.2300000042 0.8497899771 5729.7753906
 6260.5000000 6260.5000000 2.5749399662 3.0008199215 0.2300000042 0.8490999937 5729.7558594
 6261.0000000 6261.0000000 2.5927898884 3.2087199688 0.2300000042 0.8516100049 5729.7358398
 6261.5000000 6261.5000000 2.5950999260 3.1190199852 0.2300000042 0.8728399873 5729.7158203
 6262.0000000 6262.0000000 2.5711901188 2.8722400665 0.2300000042 0.9021400213 5729.6962891
 6262.5000000 6262.5000000 2.5435900688 2.6884601116 0.2300000042 0.9064499736 5729.6762695
 6263.0000000 6263.0000000 2.5353500843 2.5944099426 0.2300000042 0.8997799754 5729.6562500
 6263.5000000 6263.5000000 2.5478699207 2.6398899555 0.2300000042 0.8473899961 5729.6367188
 6264.0000000 6264.0000000 2.5607800484 2.7499899864 0.2300000042 0.8356099725 5729.6166992
 6264.5000000 6264.5000000 2.5718300343 2.8582599163 0.2300000042 0.8166499734 5729.5966797
 6265.0000000 6265.0000000 2.5910999775 3.0031299591 0.2300000042 0.8308399916 5729.5766602
 6265.5000000 6265.5000000 2.6047399044 3.0490000248 0.2300000042 0.8728799820 5729.5561523
 6266.0000000 6266.0000000 2.5905499458 2.9558598995 0.2300000042 0.8727099895 5729.5361328
 6266.5000000 6266.5000000 2.5545899868 2.8121900558 0.2300000042 0.8754799962 5729.5156250
 6267.0000000 6267.0000000 2.5318200588 2.6595399380 0.2300000042 0.8780800104 5729.4951172
 6267.5000000 6267.5000000 2.5418999195 2.5758299828 0.2300000042 0.8622800112 5729.4755859
 6268.0000000 6268.0000000 2.5618898869 2.5533699989 0.2300000042 0.8398600221 5729.4550781
 6268.5000000 6268.5000000 2.5695300102 2.6016099453 0.2300000042 0.8286799788 5729.4350586
 6269.0000000 6269.0000000 2.5659000874 2.7448599339 0.2300000042 0.8174899817 5729.4145508
 6269.5000000 6269.5000000 2.5639500618 2.7999200821 0.2300000042 0.8320400119 5729.3940430
 6270.0000000 6270.0000000 2.5666699409 2.7989900112 0.2300000042 0.8353300095 5729.3740234
 6270.5000000 6270.5000000 2.5697500706 2.7519800663 0.2300000042 0.8421499729 5729.3530273
 6271.0000000 6271.0000000 2.5705599785 2.7898600101 0.2300000042 0.8465300202 5729.3325195
 6271.5000000 6271.5000000 2.5685501099 2.8068799973 0.2300000042 0.8415700197 5729.3120117
 6272.0000000 6272.0000000 2.5599200726 2.8035399914 0.2300000042 0.8528299928 5729.2910156
 6272.5000000 6272.5000000 2.5503199100 2.8003098965 0.2300000042 0.8683999777 5729.2705078
 6273.0000000 6273.0000000 2.5491299629 2.7828400135 0.2300000042 0.8831899762 5729.2495117
 6273.5000000 6273.5000000 2.5589299202 2.8024399281 0.2300000042 0.8859199882 5729.2290039
 6274.0000000 6274.0000000 2.5701200962 2.8013999462 0.2300000042 0.8713399768 5729.2080078
 6274.5000000 6274.5000000 2.5707199574 2.7912900448 0.2300000042 0.8561599851 5729.1870117
 6275.0000000 6275.0000000 2.5637099743 2.7895400524 0.2300000042 0.8303899765 5729.1660156
 6275.5000000 6275.5000000 2.5547399521 2.8299698830 0.2300000042 0.8284000158 5729.1445313
 6276.0000000 6276.0000000 2.5495700836 2.8667099476 0.2300000042 0.8413699865 5729.1235352
 6276.5000000 6276.5000000 2.5501699448 2.8265199661 0.2300000042 0.8479599953 5729.1025391
 6277.0000000 6277.0000000 2.5569400787 2.7887599468 0.2300000042 0.8497200012 5729.0815430
 6277.5000000 6277.5000000 2.5699300766 2.7358899117 0.2300000042 0.8563600183 5729.0600586
 6278.0000000 6278.0000000 2.5822501183 2.7424600124 0.2300000042 0.8534799814 5729.0390625
 6278.5000000 6278.5000000 2.5905098915 2.7118699551 0.2300000042 0.8534600139 5729.0175781
 6279.0000000 6279.0000000 2.5897998810 2.7145099640 0.2300000042 0.8502699733 5728.9960938
 6279.5000000 6279.5000000 2.5742199421 2.6674199104 0.2300000042 0.8501999974 5728.9741211
 6280.0000000 6280.0000000 2.5533599854 2.6887500286 0.2300000042 0.8534600139 5728.9531250
 6280.5000000 6280.5000000 2.5367999077 2.6752800941 0.2300000042 0.8455600142 5728.9321289
 6281.0000000 6281.0000000 2.5355200768 2.6824100018 0.2300000042 0.8424100280 5728.9111328
 6281.5000000 6281.5000000 2.5412099361 2.7202301025 0.2300000042 0.8502500057 5728.8901367
 6282.0000000 6282.0000000 2.5478899479 2.7284500599 0.2300000042 0.8599299788 5728.8691406
 6282.5000000 6282.5000000 2.5528800488 2.6841299534 0.2300000042 0.8736299872 5728.8481445
 6283.0000000 6283.0000000 2.5510001183 2.6392400265 0.2300000042 0.8538100123 5728.8266602
 6283.5000000 6283.5000000 2.5388998985 2.6664199829 0.2300000042 0.8327900171 5728.8061523
 6284.0000000 6284.0000000 2.5200901031 2.7397000790 0.2300000042 0.8236200213 5728.7851563
 6284.5000000 6284.5000000 2.5071899891 2.7734999657 0.2300000042 0.8128299713 5728.7646484
 6285.0000000 6285.0000000 2.5051200390 2.7637898922 0.2300000042 0.8267199993 5728.7441406
 6285.5000000 6285.5000000 2.5104200840 2.7666800022 0.2300000042 0.8093900084 5728.7241211
 6286.0000000 6286.0000000 2.5171399117 2.7391200066 0.2300000042 0.8133800030 5728.7036133
 6286.5000000 6286.5000000 2.5238599777 2.7047700882 0.2300000042 0.8356599808 5728.6835938
 6287.0000000 6287.0000000 2.5305900574 2.6633300781 0.2300000042 0.8360700011 5728.6630859
 6287.5000000 6287.5000000 2.5357398987 2.5936698914 0.2300000042 0.8504300117 5728.6425781
 6288.0000000 6288.0000000 2.5358500481 2.5414800644 0.2300000042 0.8367699981 5728.6215820
 6288.5000000 6288.5000000 2.5274899006 2.5931301117 0.2300000042 0.8284400105 5728.6015625
 6289.0000000 6289.0000000 2.5126500130 2.7408299446 0.2300000042 0.8320400119 5728.5810547
 6289.5000000 6289.5000000 2.5012600422 2.8176300526 0.2300000042 0.8348699808 5728.5610352
