# LAS format log file from PETREL
# Project units are specified as depth units
#==================================================================
~Version information
VERS.   2.0:
WRAP.   NO:
#==================================================================
~Well
STRT .m      5420.0000000 :
STOP .m      7109.0000000 :
STEP .m     0.50000000 :
NULL .        -999.250000 :
COMP.           : COMPANY
WELL.  423673457600   : WELL
FLD.            : FIELD
LOC.            : LOCATION
SRVC.           : SERVICE COMPANY
DATE.  2016-03-15 13:19:34   : Log Export Date {yyyy-MM-dd HH:mm:ss}
PROV.           : PROVINCE
UWI.      : UNIQUE WELL ID
API.            : API NUMBER
#==================================================================
~Curve
DEPT .m                   : DEPTH
DEPT .m                   : DEPT
RHOB .g/cm3               : RHOB
PEF .b/e                  : PEF
NPHI .m3/m3               : NPHI
GR .gAPI                  : GR
AT90 .ohm.m               : AT90
~Parameter
#==================================================================
~Ascii
# ...
 5942.0000000 5942.0000000 2.5616600513 3.0355598927 0.2300000042 0.8758199811 5741.4091797
 5942.5000000 5942.5000000 2.5827701092 2.8965499401 0.2300000042 0.8926699758 5741.3886719
 5943.0000000 5943.0000000 2.6038899422 2.8094000816 0.2300000042 0.9049999714 5741.3686523
 5943.5000000 5943.5000000 2.6210000515 2.8517799377 0.2300000042 0.9150099754 5741.3476563
 5944.0000000 5944.0000000 2.6324999332 2.9935901165 0.2300000042 0.9146400094 5741.3271484
 5944.5000000 5944.5000000 2.6343998909 3.1880099773 0.2300000042 0.9123499990 5741.3061523
 5945.0000000 5945.0000000 2.6359100342 3.2457799911 0.2300000042 0.8990799785 5741.2856445
 5945.5000000 5945.5000000 2.6350500584 3.2507901192 0.2300000042 0.8649799824 5741.2651367
 5946.0000000 5946.0000000 2.6389000416 3.2462100983 0.2300000042 0.8711799979 5741.2436523
 5946.5000000 5946.5000000 2.6409800053 3.2360599041 0.2300000042 0.8812800050 5741.2226563
 5947.0000000 5947.0000000 2.6520500183 3.3331599236 0.2300000042 0.8816499710 5741.2016602
 5947.5000000 5947.5000000 2.6717000008 3.3496201038 0.2300000042 0.8618299961 5741.1801758
 5948.0000000 5948.0000000 2.6921799183 3.3112900257 0.2300000042 0.8508499861 5741.1586914
 5948.5000000 5948.5000000 2.6949200630 3.3710899353 0.2300000042 0.8540499806 5741.1372070
 5949.0000000 5949.0000000 2.6724898815 3.3735499382 0.2300000042 0.8650900126 5741.1157227
 5949.5000000 5949.5000000 2.6322600842 3.3523399830 0.2300000042 0.8742399812 5741.0942383
 5950.0000000 5950.0000000 2.6017999649 3.4007198811 0.2300000042 0.8850399852 5741.0727539
 5950.5000000 5950.5000000 2.5869901180 3.4295599461 0.2300000042 0.9134200215 5741.0517578
 5951.0000000 5951.0000000 2.6030499935 3.4445099831 0.2300000042 0.9039499760 5741.0312500
 5951.5000000 5951.5000000 2.6214900017 3.4136199951 0.2300000042 0.8879600167 5741.0097656
 5952.0000000 5952.0000000 2.6453599930 3.3211600780 0.2300000042 0.8920699954 5740.9887695
 5952.5000000 5952.5000000 2.6547000408 3.2759699821 0.2300000042 0.9150900245 5740.9672852
 5953.0000000 5953.0000000 2.6641299725 3.3167901039 0.2300000042 0.9146199822 5740.9458008
 5953.5000000 5953.5000000 2.6680500507 3.4803400040 0.2300000042 0.9028099775 5740.9243164
 5954.0000000 5954.0000000 2.6775100231 3.5738599300 0.2300000042 0.8678200245 5740.9023438
 5954.5000000 5954.5000000 2.6870100498 3.5222599506 0.2300000042 0.8648399711 5740.8803711
 5955.0000000 5955.0000000 2.6899700165 3.4810800552 0.2300000042 0.8665999770 5740.8583984
 5955.5000000 5955.5000000 2.6717500687 3.4232399464 0.2300000042 0.8424400091 5740.8364258
 5956.0000000 5956.0000000 2.6457800865 3.3425700665 0.2300000042 0.8874499798 5740.8144531
 5956.5000000 5956.5000000 2.6308701038 3.3629500866 0.2300000042 0.8939700127 5740.7929688
 5957.0000000 5957.0000000 2.6476800442 3.4203898907 0.2300000042 0.8990200162 5740.7714844
 5957.5000000 5957.5000000 2.6779899597 3.4283599854 0.2300000042 0.8990200162 5740.7495117
 5958.0000000 5958.0000000 2.7009201050 3.4276299477 0.2300000042 0.8964599967 5740.7275391
 5958.5000000 5958.5000000 2.7052500248 3.5316300392 0.2300000042 0.8819000125 5740.7050781
 5959.0000000 5959.0000000 2.7030498981 3.5874500275 0.2300000042 0.8438000083 5740.6826172
 5959.5000000 5959.5000000 2.7105200291 3.5961499214 0.2300000042 0.8470799923 5740.6601563
 5960.0000000 5960.0000000 2.7227799892 3.5609600544 0.2300000042 0.8603399992 5740.6376953
 5960.5000000 5960.5000000 2.7344200611 3.5701799393 0.2300000042 0.8601899743 5740.6152344
 5961.0000000 5961.0000000 2.7291998863 3.6274800301 0.2300000042 0.8766899705 5740.5927734
 5961.5000000 5961.5000000 2.7079699039 3.6186399460 0.2300000042 0.8943799734 5740.5698242
 5962.0000000 5962.0000000 2.6720800400 3.5961499214 0.2300000042 0.9088699818 5740.5473633
 5962.5000000 5962.5000000 2.6386699677 3.5709400177 0.2300000042 0.9041200280 5740.5249023
 5963.0000000 5963.0000000 2.6181299686 3.6079299450 0.2300000042 0.8789499998 5740.5029297
 5963.5000000 5963.5000000 2.6142799854 3.6058599949 0.2300000042 0.8647800088 5740.4809570
 5964.0000000 5964.0000000 2.6216499805 3.5577499866 0.2300000042 0.8612999916 5740.4594727
 5964.5000000 5964.5000000 2.6312398911 3.5671899319 0.2300000042 0.8562399745 5740.4375000
 5965.0000000 5965.0000000 2.6304500103 3.6159400940 0.2300000042 0.8575000167 5740.4155273
 5965.5000000 5965.5000000 2.6199100018 3.6156899929 0.2300000042 0.8489999771 5740.3935547
 5966.0000000 5966.0000000 2.6033101082 3.6621499062 0.2300000042 0.8640499711 5740.3715820
 5966.5000000 5966.5000000 2.5922400951 3.5351700783 0.2300000042 0.8975099921 5740.3500977
 5967.0000000 5967.0000000 2.5859398842 3.4169600010 0.2300000042 0.9264900088 5740.3281250
 5967.5000000 5967.5000000 2.5972099304 3.3368000984 0.2300000042 0.9311800003 5740.3066406
 5968.0000000 5968.0000000 2.6263198853 3.1969299316 0.2300000042 0.9108200073 5740.2851563
 5968.5000000 5968.5000000 2.6677498817 3.1865499020 0.2300000042 0.9150900245 5740.2631836
 5969.0000000 5969.0000000 2.6991899014 3.2007200718 0.2300000042 0.9087100029 5740.2407227
 5969.5000000 5969.5000000 2.7169799805 3.2504999638 0.2300000042 0.9134500027 5740.2182617
 5970.0000000 5970.0000000 2.7234699726 3.3924100399 0.2300000042 0.9119200110 5740.1958008
 5970.5000000 5970.5000000 2.7279400826 3.3414599895 0.2300000042 0.9100599885 5740.1728516
 5971.0000000 5971.0000000 2.7221798897 3.3343698978 0.2300000042 0.8988599777 5740.1499023
 5971.5000000 5971.5000000 2.7087600231 3.4519100189 0.2300000042 0.8809000254 5740.1269531
 5972.0000000 5972.0000000 2.6784400940 3.3702700138 0.2300000042 0.8926500082 5740.1040039
 5972.5000000 5972.5000000 2.6448299885 3.3128499985 0.2300000042 0.8996499777 5740.0820313
 5973.0000000 5973.0000000 2.6099200249 3.2863299847 0.2300000042 0.9109399915 5740.0600586
 5973.5000000 5973.5000000 2.5926899910 3.2667200565 0.2300000042 0.9135400057 5740.0375977
 5974.0000000 5974.0000000 2.5954499245 3.2200500965 0.2300000042 0.8899999857 5740.0161133
 5974.5000000 5974.5000000 2.6105298996 3.2223498821 0.2300000042 0.8871799707 5739.9946289
 5975.0000000 5975.0000000 2.6263699532 3.2324800491 0.2300000042 0.8772799969 5739.9726563
 5975.5000000 5975.5000000 2.6327800751 3.2797300816 0.2300000042 0.8745499849 5739.9506836
 5976.0000000 5976.0000000 2.6407399178 3.2851099968 0.2300000042 0.8717300296 5739.9287109
 5976.5000000 5976.5000000 2.6520900726 3.2991099358 0.2300000042 0.8684999943 5739.9067383
 5977.0000000 5977.0000000 2.6612501144 3.2574999332 0.2300000042 0.8800100088 5739.8842773
 5977.5000000 5977.5000000 2.6496899128 3.2409501076 0.2300000042 0.8770999908 5739.8618164
 5978.0000000 5978.0000000 2.6179900169 3.2179501057 0.2300000042 0.8634600043 5739.8393555
 5978.5000000 5978.5000000 2.5879900455 3.2012801170 0.2300000042 0.8541399837 5739.8173828
 5979.0000000 5979.0000000 2.5778999329 3.1973900795 0.2300000042 0.8602399826 5739.7954102
 5979.5000000 5979.5000000 2.5825700760 3.2010700703 0.2300000042 0.8708500266 5739.7739258
 5980.0000000 5980.0000000 2.5941500664 3.1638100147 0.2300000042 0.8675600290 5739.7524414
 5980.5000000 5980.5000000 2.6083300114 3.1648800373 0.2300000042 0.8627200127 5739.7304688
 5981.0000000 5981.0000000 2.6249399185 3.1712899208 0.2300000042 0.8569099903 5739.7084961
 5981.5000000 5981.5000000 2.6195199490 3.1707398891 0.2300000042 0.8476300240 5739.6865234
 5982.0000000 5982.0000000 2.5950899124 3.1621398926 0.2300000042 0.8477299809 5739.6645508
 5982.5000000 5982.5000000 2.5643200874 3.2402899265 0.2300000042 0.8539100289 5739.6425781
 5983.0000000 5983.0000000 2.5535199642 3.2358698845 0.2300000042 0.8595700264 5739.6210938
 5983.5000000 5983.5000000 2.5534799099 3.1921100616 0.2300000042 0.8713499904 5739.5991211
 5984.0000000 5984.0000000 2.5536499023 3.1868300438 0.2300000042 0.8771899939 5739.5776367
 5984.5000000 5984.5000000 2.5468199253 3.1790699959 0.2300000042 0.8888700008 5739.5561523
 5985.0000000 5985.0000000 2.5376899242 3.2168900967 0.2300000042 0.8838199973 5739.5346680
