# LAS format log file from PETREL
# Project units are specified as depth units
#==================================================================
~Version information
VERS.   2.0:
WRAP.   NO:
#==================================================================
~Well
STRT .m      5420.0000000 :
STOP .m      7109.0000000 :
STEP .m     0.50000000 :
NULL .        -999.250000 :
COMP.           : COMPANY
WELL.  423673457600   : WELL
FLD.            : FIELD
LOC.            : LOCATION
SRVC.           : SERVICE COMPANY
DATE.  2016-03-15 13:19:34   : Log Export Date {yyyy-MM-dd HH:mm:ss}
PROV.           : PROVINCE
UWI.      : UNIQUE WELL ID
API.            : API NUMBER
#==================================================================
~Curve
DEPT .m                   : DEPTH
DEPT .m                   : DEPT
RHOB .g/cm3               : RHOB
PEF .b/e                  : PEF
NPHI .m3/m3               : NPHI
GR .gAPI                  : GR
AT90 .ohm.m               : AT90
~Parameter
#==================================================================
~Ascii
# ...
 6159.5000000 6159.5000000 2.5709199905 3.0866999626 0.2300000042 0.8898699880 5732.8759766
 6160.0000000 6160.0000000 2.5932199955 3.0601599216 0.2300000042 0.8842399716 5732.8618164
 6160.5000000 6160.5000000 2.6130900383 3.0522298813 0.2300000042 0.8840699792 5732.8471680
 6161.0000000 6161.0000000 2.6127400398 3.0511000156 0.2300000042 0.8840699792 5732.8330078
 6161.5000000 6161.5000000 2.6129500866 3.1085898876 0.2300000042 0.8860300183 5732.8183594
 6162.0000000 6162.0000000 2.6098399162 3.0631198883 0.2300000042 0.8786799908 5732.8041992
 6162.5000000 6162.5000000 2.6050601006 3.0576200485 0.2300000042 0.8775500059 5732.7895508
 6163.0000000 6163.0000000 2.5948200226 3.0267899036 0.2300000042 0.8791000247 5732.7753906
 6163.5000000 6163.5000000 2.5838398933 3.0411200523 0.2300000042 0.8669800162 5732.7607422
 6164.0000000 6164.0000000 2.5658299923 3.0731799603 0.2300000042 0.8620200157 5732.7470703
 6164.5000000 6164.5000000 2.5480000973 3.0602099895 0.2300000042 0.8616899848 5732.7329102
 6165.0000000 6165.0000000 2.5341999531 3.0537900925 0.2300000042 0.8616899848 5732.7192383
 6165.5000000 6165.5000000 2.5329399109 3.0557200909 0.2300000042 0.8693799973 5732.7055664
 6166.0000000 6166.0000000 2.5390799046 3.0592401028 0.2300000042 0.8800100088 5732.6918945
 6166.5000000 6166.5000000 2.5529398918 3.0023899078 0.2300000042 0.8768600225 5732.6787109
 6167.0000000 6167.0000000 2.5726900101 3.0121300220 0.2300000042 0.8772900105 5732.6650391
 6167.5000000 6167.5000000 2.5875799656 2.9791600704 0.2300000042 0.8727099895 5732.6508789
 6168.0000000 6168.0000000 2.5846199989 2.9823799133 0.2300000042 0.8699200153 5732.6372070
 6168.5000000 6168.5000000 2.5639901161 2.9696700573 0.2300000042 0.8787900209 5732.6230469
 6169.0000000 6169.0000000 2.5519099236 3.0101900101 0.2300000042 0.8679500222 5732.6093750
 6169.5000000 6169.5000000 2.5623600483 3.0854499340 0.2300000042 0.8725200295 5732.5961914
 6170.0000000 6170.0000000 2.5903599262 3.1076500416 0.2300000042 0.8775600195 5732.5825195
 6170.5000000 6170.5000000 2.6106801033 3.2091200352 0.2300000042 0.8784099817 5732.5688477
 6171.0000000 6171.0000000 2.6154699326 3.2585299015 0.2300000042 0.8823400140 5732.5551758
 6171.5000000 6171.5000000 2.6061100960 3.2507700920 0.2300000042 0.8839399815 5732.5410156
 6172.0000000 6172.0000000 2.5945000648 3.2487699986 0.2300000042 0.8765199780 5732.5273438
 6172.5000000 6172.5000000 2.5829899311 3.2408199310 0.2300000042 0.8865900040 5732.5141602
 6173.0000000 6173.0000000 2.5692598820 3.2293200493 0.2300000042 0.8828499913 5732.5004883
 6173.5000000 6173.5000000 2.5588500500 3.2546598911 0.2300000042 0.8752200007 5732.4868164
 6174.0000000 6174.0000000 2.5581600666 3.1956400871 0.2300000042 0.8649200201 5732.4736328
 6174.5000000 6174.5000000 2.5782101154 3.1686699390 0.2300000042 0.8517400026 5732.4609375
 6175.0000000 6175.0000000 2.5931599140 3.0960500240 0.2300000042 0.8661500216 5732.4477539
 6175.5000000 6175.5000000 2.5909500122 3.0968399048 0.2300000042 0.8755900264 5732.4340820
 6176.0000000 6176.0000000 2.5667901039 3.0306799412 0.2300000042 0.8782500029 5732.4208984
 6176.5000000 6176.5000000 2.5541799068 3.0411601067 0.2300000042 0.8631799817 5732.4077148
 6177.0000000 6177.0000000 2.5582199097 3.0166099072 0.2300000042 0.8582699895 5732.3950195
 6177.5000000 6177.5000000 2.5706799030 3.0315198898 0.2300000042 0.8405699730 5732.3818359
 6178.0000000 6178.0000000 2.5708899498 3.0773100853 0.2300000042 0.8452399969 5732.3686523
 6178.5000000 6178.5000000 2.5607900620 3.1137399673 0.2300000042 0.8548200130 5732.3554688
 6179.0000000 6179.0000000 2.5486199856 3.1941399574 0.2300000042 0.8481000066 5732.3422852
 6179.5000000 6179.5000000 2.5475599766 3.1839699745 0.2300000042 0.8614599705 5732.3295898
 6180.0000000 6180.0000000 2.5606799126 3.0603899956 0.2300000042 0.8585500121 5732.3168945
 6180.5000000 6180.5000000 2.5819098949 2.9724299908 0.2300000042 0.8586599827 5732.3041992
 6181.0000000 6181.0000000 2.5950300694 2.9427599907 0.2300000042 0.8521900177 5732.2915039
 6181.5000000 6181.5000000 2.5895700455 2.9719200134 0.2300000042 0.8439599872 5732.2783203
 6182.0000000 6182.0000000 2.5697898865 2.9987199306 0.2300000042 0.8307800293 5732.2656250
 6182.5000000 6182.5000000 2.5493900776 3.0478899479 0.2300000042 0.8320900202 5732.2529297
 6183.0000000 6183.0000000 2.5410199165 3.0443100929 0.2300000042 0.8422499895 5732.2402344
 6183.5000000 6183.5000000 2.5441501141 3.0485401154 0.2300000042 0.8488199711 5732.2275391
 6184.0000000 6184.0000000 2.5615999699 3.0631799698 0.2300000042 0.8404200077 5732.2148438
 6184.5000000 6184.5000000 2.5821800232 3.1182200909 0.2300000042 0.8435900211 5732.2026367
 6185.0000000 6185.0000000 2.6039600372 3.0944299698 0.2300000042 0.8404899836 5732.1899414
 6185.5000000 6185.5000000 2.6046600342 3.1412799358 0.2300000042 0.8469799757 5732.1767578
 6186.0000000 6186.0000000 2.5931999683 3.2217900753 0.2300000042 0.8362799883 5732.1635742
 6186.5000000 6186.5000000 2.5742599964 3.1561100483 0.2300000042 0.8449699879 5732.1503906
 6187.0000000 6187.0000000 2.5668699741 3.0520401001 0.2300000042 0.8521699905 5732.1372070
 6187.5000000 6187.5000000 2.5662899017 2.8686399460 0.2300000042 0.8431500196 5732.1240234
 6188.0000000 6188.0000000 2.5625998974 2.8360500336 0.2300000042 0.8562999964 5732.1108398
 6188.5000000 6188.5000000 2.5538599491 2.8347899914 0.2300000042 0.8572900295 5732.0981445
 6189.0000000 6189.0000000 2.5396099091 2.8994700909 0.2300000042 0.8489699960 5732.0849609
 6189.5000000 6189.5000000 2.5361199379 2.9714899063 0.2300000042 0.8488900065 5732.0717773
 6190.0000000 6190.0000000 2.5470600128 2.9357700348 0.2300000042 0.8605800271 5732.0585938
 6190.5000000 6190.5000000 2.5731999874 2.9562399387 0.2300000042 0.8706399798 5732.0454102
 6191.0000000 6191.0000000 2.5993599892 2.9374799728 0.2300000042 0.8765900135 5732.0322266
 6191.5000000 6191.5000000 2.6121799946 2.9886100292 0.2300000042 0.8638399839 5732.0190430
 6192.0000000 6192.0000000 2.6088199615 3.0664598942 0.2300000042 0.8554999828 5732.0053711
 6192.5000000 6192.5000000 2.5946700573 3.0748100281 0.2300000042 0.8489300013 5731.9916992
 6193.0000000 6193.0000000 2.5716800690 3.0628199577 0.2300000042 0.8474900126 5731.9785156
 6193.5000000 6193.5000000 2.5532801151 3.0465300083 0.2300000042 0.8524199724 5731.9648438
 6194.0000000 6194.0000000 2.5462200642 3.0253200531 0.2300000042 0.8475199938 5731.9511719
 6194.5000000 6194.5000000 2.5604801178 3.0196199417 0.2300000042 0.8490800261 5731.9375000
 6195.0000000 6195.0000000 2.5765099525 3.0337400436 0.2300000042 0.8521800041 5731.9243164
 6195.5000000 6195.5000000 2.5838999748 3.0867500305 0.2300000042 0.8585500121 5731.9106445
 6196.0000000 6196.0000000 2.5806300640 3.0833299160 0.2300000042 0.8693799973 5731.8964844
 6196.5000000 6196.5000000 2.5796000957 3.0844299793 0.2300000042 0.8760200143 5731.8828125
 6197.0000000 6197.0000000 2.5862300396 3.1329600811 0.2300000042 0.8779399991 5731.8686523
 6197.5000000 6197.5000000 2.5937600136 3.0903298855 0.2300000042 0.8695700169 5731.8549805
 6198.0000000 6198.0000000 2.6012101173 3.0927300453 0.2300000042 0.8618500233 5731.8408203
 6198.5000000 6198.5000000 2.6061201096 3.1337299347 0.2300000042 0.8621399999 5731.8271484
 6199.0000000 6199.0000000 2.6127800941 3.1504800320 0.2300000042 0.8438799977 5731.8125000
 6199.5000000 6199.5000000 2.6180200577 3.2107501030 0.2300000042 0.8569399714 5731.7983398
 6200.0000000 6200.0000000 2.6224300861 3.2640500069 0.2300000042 0.8710600138 5731.7836914
 6200.5000000 6200.5000000 2.6255300045 3.2643699646 0.2300000042 0.8756499887 5731.7695313
 6201.0000000 6201.0000000 2.6280601025 3.1685700417 0.2300000042 0.8719499707 5731.7548828
 6201.5000000 6201.5000000 2.6305799484 3.0587100983 0.2300000042 0.8718799949 5731.7407227
 6202.0000000 6202.0000000 2.6331000328 3.0113699436 0.2300000042 0.8687400222 5731.7260742
 6202.5000000 6202.5000000 2.6342000961 3.0422799587 0.2300000042 0.8598399758 5731.7109375
