# LAS format log file from PETREL
# Project units are specified as depth units
#==================================================================
~Version information
VERS.   2.0:
WRAP.   NO:
#==================================================================
~Well
STRT .m      5420.0000000 :
STOP .m      7109.0000000 :
STEP .m     0.50000000 :
NULL .        -999.250000 :
COMP.           : COMPANY
WELL.  423673457600   : WELL
FLD.            : FIELD
LOC.            : LOCATION
SRVC.           : SERVICE COMPANY
DATE.  2016-03-15 13:19:34   : Log Export Date {yyyy-MM-dd HH:mm:ss}
PROV.           : PROVINCE
UWI.      : UNIQUE WELL ID
API.            : API NUMBER
#==================================================================
~Curve
DEPT .m                   : DEPTH
DEPT .m                   : DEPT
RHOB .g/cm3               : RHOB
PEF .b/e                  : PEF
NPHI .m3/m3               : NPHI
GR .gAPI                  : GR
AT90 .ohm.m               : AT90
~Parameter
#==================================================================
~Ascii
# ...
 6029.0000000 6029.0000000 2.4114398956 2.6963899136 0.2300000042 0.8000199795 5737.6186523
 6029.5000000 6029.5000000 2.4158699512 2.6371700764 0.2300000042 0.8103200197 5737.5981445
 6030.0000000 6030.0000000 2.4216599464 2.6346800327 0.2300000042 0.8254600167 5737.5771484
 6030.5000000 6030.5000000 2.4396300316 2.6328299046 0.2300000042 0.8557999730 5737.5566406
 6031.0000000 6031.0000000 2.4500000477 2.5338199139 0.2300000042 0.8628299832 5737.5356445
 6031.5000000 6031.5000000 2.4750499725 2.5093700886 0.2300000042 0.8560100198 5737.5141602
 6032.0000000 6032.0000000 2.4902300835 2.5381000042 0.2300000042 0.8337299824 5737.4931641
 6032.5000000 6032.5000000 2.5014500618 2.5758700371 0.2300000042 0.8443300128 5737.4721680
 6033.0000000 6033.0000000 2.4949100018 2.6303699017 0.2300000042 0.8546599746 5737.4501953
 6033.5000000 6033.5000000 2.4874699116 2.6936900616 0.2300000042 0.8465999961 5737.4291992
 6034.0000000 6034.0000000 2.4796299934 2.6555399895 0.2300000042 0.8390700221 5737.4082031
 6034.5000000 6034.5000000 2.4731199741 2.6865200996 0.2300000042 0.8275200129 5737.3872070
 6035.0000000 6035.0000000 2.4684300423 2.6497099400 0.2300000042 0.8391199708 5737.3657227
 6035.5000000 6035.5000000 2.4738399982 2.7235400677 0.2300000042 0.8255400062 5737.3447266
 6036.0000000 6036.0000000 2.4902598858 2.7894299030 0.2300000042 0.8199700117 5737.3237305
 6036.5000000 6036.5000000 2.5093300343 2.7646698952 0.2300000042 0.8237299919 5737.3022461
 6037.0000000 6037.0000000 2.5140099525 2.7432999611 0.2300000042 0.8288699985 5737.2812500
 6037.5000000 6037.5000000 2.5069200993 2.6626598835 0.2300000042 0.8326699734 5737.2602539
 6038.0000000 6038.0000000 2.4934000969 2.6184198856 0.2300000042 0.8361399770 5737.2387695
 6038.5000000 6038.5000000 2.4895100594 2.6468000412 0.2300000042 0.8212400079 5737.2177734
 6039.0000000 6039.0000000 2.4881401062 2.6394100189 0.2300000042 0.8212699890 5737.1967773
 6039.5000000 6039.5000000 2.4941000938 2.6394500732 0.2300000042 0.8212699890 5737.1757813
 6040.0000000 6040.0000000 2.5049600601 2.6149001122 0.2300000042 0.8165400028 5737.1542969
 6040.5000000 6040.5000000 2.5141000748 2.5987300873 0.2300000042 0.8218700290 5737.1333008
 6041.0000000 6041.0000000 2.5143299103 2.6762800217 0.2300000042 0.8106899858 5737.1123047
 6041.5000000 6041.5000000 2.4930500984 2.7968399525 0.2300000042 0.8022000194 5737.0908203
 6042.0000000 6042.0000000 2.4684400558 2.8537199497 0.2300000042 0.8088200092 5737.0703125
 6042.5000000 6042.5000000 2.4394299984 2.8303699493 0.2300000042 0.8311100006 5737.0493164
 6043.0000000 6043.0000000 2.4235000610 2.7793600559 0.2300000042 0.8491799831 5737.0292969
 6043.5000000 6043.5000000 2.4220600128 2.7078199387 0.2300000042 0.8529499769 5737.0087891
 6044.0000000 6044.0000000 2.4421100616 2.6372599602 0.2300000042 0.8547999859 5736.9887695
 6044.5000000 6044.5000000 2.4779300690 2.5875000954 0.2300000042 0.8606899977 5736.9682617
 6045.0000000 6045.0000000 2.5106201172 2.5972499847 0.2300000042 0.8722699881 5736.9477539
 6045.5000000 6045.5000000 2.5262498856 2.5953299999 0.2300000042 0.8809599876 5736.9267578
 6046.0000000 6046.0000000 2.5139200687 2.5481400490 0.2300000042 0.8595700264 5736.9057617
 6046.5000000 6046.5000000 2.4865500927 2.4842898846 0.2300000042 0.8463000059 5736.8852539
 6047.0000000 6047.0000000 2.4563400745 2.4862599373 0.2300000042 0.8226100206 5736.8642578
 6047.5000000 6047.5000000 2.4353499413 2.5444099903 0.2300000042 0.8036999702 5736.8442383
 6048.0000000 6048.0000000 2.4197599888 2.5701301098 0.2300000042 0.8034999967 5736.8237305
 6048.5000000 6048.5000000 2.4113800526 2.5691299438 0.2300000042 0.8036900163 5736.8037109
 6049.0000000 6049.0000000 2.4088699818 2.6047599316 0.2300000042 0.8180800080 5736.7841797
 6049.5000000 6049.5000000 2.4175100327 2.6116399765 0.2300000042 0.8278099895 5736.7641602
 6050.0000000 6050.0000000 2.4317500591 2.6269600391 0.2300000042 0.8357399702 5736.7441406
 6050.5000000 6050.5000000 2.4504699707 2.6433000565 0.2300000042 0.8357399702 5736.7246094
 6051.0000000 6051.0000000 2.4579899311 2.6457901001 0.2300000042 0.8496999741 5736.7041016
 6051.5000000 6051.5000000 2.4609000683 2.6367700100 0.2300000042 0.8661800027 5736.6835938
 6052.0000000 6052.0000000 2.4539899826 2.6223199368 0.2300000042 0.8709099889 5736.6635742
 6052.5000000 6052.5000000 2.4526300430 2.6193099022 0.2300000042 0.8532299995 5736.6430664
 6053.0000000 6053.0000000 2.4476199150 2.5836699009 0.2300000042 0.8330299854 5736.6235352
 6053.5000000 6053.5000000 2.4466500282 2.5534400940 0.2300000042 0.8332999945 5736.6035156
 6054.0000000 6054.0000000 2.4471700191 2.5264699459 0.2300000042 0.8398500085 5736.5834961
 6054.5000000 6054.5000000 2.4493598938 2.5273699760 0.2300000042 0.8366799951 5736.5634766
 6055.0000000 6055.0000000 2.4440100193 2.5907099247 0.2300000042 0.8424699903 5736.5439453
 6055.5000000 6055.5000000 2.4293200970 2.5754899979 0.2300000042 0.8328999877 5736.5239258
 6056.0000000 6056.0000000 2.4188499451 2.6319999695 0.2300000042 0.8275200129 5736.5039063
 6056.5000000 6056.5000000 2.4237599373 2.5286500454 0.2300000042 0.8220400214 5736.4843750
 6057.0000000 6057.0000000 2.4419701099 2.4968900681 0.2300000042 0.8255500197 5736.4648438
 6057.5000000 6057.5000000 2.4543499947 2.4710099697 0.2300000042 0.8369600177 5736.4448242
 6058.0000000 6058.0000000 2.4584200382 2.5460400581 0.2300000042 0.8182500005 5736.4248047
 6058.5000000 6058.5000000 2.4723300934 2.6604599953 0.2300000042 0.7779300213 5736.4052734
 6059.0000000 6059.0000000 2.5180199146 2.8347299099 0.2300000042 0.7685099840 5736.3852539
 6059.5000000 6059.5000000 2.5765600204 3.0667700768 0.2300000042 0.7663400173 5736.3647461
 6060.0000000 6060.0000000 2.6205101013 3.1932599545 0.2300000042 0.7871599793 5736.3442383
 6060.5000000 6060.5000000 2.6347999573 3.1217000484 0.2300000042 0.8300099969 5736.3232422
 6061.0000000 6061.0000000 2.6418099403 3.0192899704 0.2300000042 0.8568900228 5736.3017578
 6061.5000000 6061.5000000 2.6345400810 2.8851599693 0.2300000042 0.8571400046 5736.2807617
 6062.0000000 6062.0000000 2.5984001160 2.7623200417 0.2300000042 0.8258799911 5736.2597656
 6062.5000000 6062.5000000 2.5338199139 2.6762900352 0.2300000042 0.8213000298 5736.2387695
 6063.0000000 6063.0000000 2.4759199619 2.6390500069 0.2300000042 0.8213000298 5736.2187500
 6063.5000000 6063.5000000 2.4525001049 2.6240799427 0.2300000042 0.8213000298 5736.1987305
 6064.0000000 6064.0000000 2.4497199059 2.6241900921 0.2300000042 0.8213000298 5736.1791992
 6064.5000000 6064.5000000 2.4470601082 2.5578999519 0.2300000042 0.8299900293 5736.1596680
 6065.0000000 6065.0000000 2.4293498993 2.4685800076 0.2300000042 0.8612499833 5736.1406250
 6065.5000000 6065.5000000 2.4118599892 2.2638900280 0.2300000042 0.8633700013 5736.1210938
 6066.0000000 6066.0000000 2.4029600620 2.1170399189 0.2300000042 0.8654199839 5736.1020508
 6066.5000000 6066.5000000 2.4051299095 2.1401200294 0.2300000042 0.8522099853 5736.0830078
 6067.0000000 6067.0000000 2.4084000587 2.2349600792 0.2300000042 0.8506299853 5736.0639648
 6067.5000000 6067.5000000 2.4104299545 2.2945199013 0.2300000042 0.8436499834 5736.0449219
 6068.0000000 6068.0000000 2.4202399254 2.3444099426 0.2300000042 0.8625400066 5736.0258789
 6068.5000000 6068.5000000 2.4275999069 2.4381899834 0.2300000042 0.8729000092 5736.0068359
 6069.0000000 6069.0000000 2.4190900326 2.4619100094 0.2300000042 0.8759099841 5735.9877930
 6069.5000000 6069.5000000 2.3820199966 2.5232799053 0.2300000042 0.8704699874 5735.9687500
 6070.0000000 6070.0000000 2.3394401073 2.5675899982 0.2300000042 0.8537099957 5735.9501953
 6070.5000000 6070.5000000 2.3125300407 2.5486099720 0.2300000042 0.8390700221 5735.9316406
 6071.0000000 6071.0000000 2.3124001026 2.5997800827 0.2300000042 0.8515200019 5735.9135742
 6071.5000000 6071.5000000 2.3278300762 2.5899500847 0.2300000042 0.8515200019 5735.8950195
 6072.0000000 6072.0000000 2.3487999439 2.5013198853 0.2300000042 0.8532099724 5735.8769531
