# LAS format log file from PETREL
# Project units are specified as depth units
#==================================================================
~Version information
VERS.   2.0:
WRAP.   NO:
#==================================================================
~Well
STRT .m      5420.0000000 :
STOP .m      7109.0000000 :
STEP .m     0.50000000 :
NULL .        -999.250000 :
COMP.           : COMPANY
WELL.  423673457600   : WELL
FLD.            : FIELD
LOC.            : LOCATION
SRVC.           : SERVICE COMPANY
DATE.  2016-03-15 13:19:34   : Log Export Date {yyyy-MM-dd HH:mm:ss}
PROV.           : PROVINCE
UWI.      : UNIQUE WELL ID
API.            : API NUMBER
#==================================================================
~Curve
DEPT .m                   : DEPTH
DEPT .m                   : DEPT
RHOB .g/cm3               : RHOB
PEF .b/e                  : PEF
NPHI .m3/m3               : NPHI
GR .gAPI                  : GR
AT90 .ohm.m               : AT90
~Parameter
#==================================================================
~Ascii
# ...
 5637.5000000 5637.5000000 2.4983999729 2.8015499115 0.2300000042 0.8560299873 5723.5278320
 5638.0000000 5638.0000000 2.4709498882 2.8440399170 0.2300000042 0.8646299839 5723.6079102
 5638.5000000 5638.5000000 2.4417300224 2.8468899727 0.2300000042 0.8823199868 5723.6865234
 5639.0000000 5639.0000000 2.4050300121 2.7693800926 0.2300000042 0.8770499825 5723.7641602
 5639.5000000 5639.5000000 2.3778901100 2.7137699127 0.2300000042 0.8625400066 5723.8398438
 5640.0000000 5640.0000000 2.3563399315 2.6710300446 0.2300000042 0.8420100212 5723.9155273
 5640.5000000 5640.5000000 2.3483200073 2.6737999916 0.2300000042 0.8270000219 5723.9892578
 5641.0000000 5641.0000000 2.3498499393 2.7084600925 0.2300000042 0.8317700028 5724.0629883
 5641.5000000 5641.5000000 2.3628199100 2.7113199234 0.2300000042 0.8464199901 5724.1367188
 5642.0000000 5642.0000000 2.3794798851 2.7101700306 0.2300000042 0.8616700172 5724.2104492
 5642.5000000 5642.5000000 2.3929200172 2.7036900520 0.2300000042 0.8616700172 5724.2846680
 5643.0000000 5643.0000000 2.4092199802 2.7011299133 0.2300000042 0.8508800268 5724.3588867
 5643.5000000 5643.5000000 2.4245300293 2.6669299603 0.2300000042 0.8418200016 5724.4331055
 5644.0000000 5644.0000000 2.4342799187 2.5837500095 0.2300000042 0.8327699900 5724.5083008
 5644.5000000 5644.5000000 2.4350900650 2.5004799366 0.2300000042 0.8287400007 5724.5830078
 5645.0000000 5645.0000000 2.4292399883 2.5121400356 0.2300000042 0.8253999949 5724.6577148
 5645.5000000 5645.5000000 2.4220499992 2.5387399197 0.2300000042 0.8165799975 5724.7324219
 5646.0000000 5646.0000000 2.4062399864 2.5959200859 0.2300000042 0.8360700011 5724.8061523
 5646.5000000 5646.5000000 2.3919899464 2.5881600380 0.2300000042 0.8608800173 5724.8798828
 5647.0000000 5647.0000000 2.3890199661 2.5876901150 0.2300000042 0.8608800173 5724.9531250
 5647.5000000 5647.5000000 2.4103899002 2.6051199436 0.2300000042 0.8546800017 5725.0258789
 5648.0000000 5648.0000000 2.4437301159 2.5638101101 0.2300000042 0.8561000228 5725.0991211
 5648.5000000 5648.5000000 2.4695301056 2.5958900452 0.2300000042 0.8620700240 5725.1728516
 5649.0000000 5649.0000000 2.4792699814 2.6013300419 0.2300000042 0.8720899820 5725.2475586
 5649.5000000 5649.5000000 2.4778099060 2.6325500011 0.2300000042 0.8748300076 5725.3227539
 5650.0000000 5650.0000000 2.4820799828 2.6979799271 0.2300000042 0.8837299943 5725.3974609
 5650.5000000 5650.5000000 2.4942400455 2.7626900673 0.2300000042 0.8748000264 5725.4721680
 5651.0000000 5651.0000000 2.5172300339 2.7533600330 0.2300000042 0.8828999996 5725.5473633
 5651.5000000 5651.5000000 2.5425500870 2.7213099003 0.2300000042 0.8806099892 5725.6225586
 5652.0000000 5652.0000000 2.5664300919 2.6900200844 0.2300000042 0.8792600036 5725.6987305
 5652.5000000 5652.5000000 2.5784199238 2.6279799938 0.2300000042 0.8906099796 5725.7749023
 5653.0000000 5653.0000000 2.5766899586 2.6301200390 0.2300000042 0.8955100179 5725.8520508
 5653.5000000 5653.5000000 2.5662000179 2.6618700027 0.2300000042 0.8816900253 5725.9287109
 5654.0000000 5654.0000000 2.5585598946 2.6908299923 0.2300000042 0.8720300198 5726.0048828
 5654.5000000 5654.5000000 2.5572500229 2.7115099430 0.2300000042 0.8660299778 5726.0805664
 5655.0000000 5655.0000000 2.5550398827 2.7437798977 0.2300000042 0.8775299788 5726.1562500
 5655.5000000 5655.5000000 2.5456800461 2.7070300579 0.2300000042 0.8788499832 5726.2314453
 5656.0000000 5656.0000000 2.5331699848 2.6689100266 0.2300000042 0.8561400175 5726.3061523
 5656.5000000 5656.5000000 2.5278699398 2.7044799328 0.2300000042 0.8454800248 5726.3803711
 5657.0000000 5657.0000000 2.5387198925 2.7160899639 0.2300000042 0.8546800017 5726.4545898
 5657.5000000 5657.5000000 2.5664699078 2.8209300041 0.2300000042 0.8624200225 5726.5288086
 5658.0000000 5658.0000000 2.6032600403 2.8499500751 0.2300000042 0.8730999827 5726.6040039
 5658.5000000 5658.5000000 2.6287798882 2.9103999138 0.2300000042 0.8683999777 5726.6796875
 5659.0000000 5659.0000000 2.6267900467 2.8805499077 0.2300000042 0.8531900048 5726.7558594
 5659.5000000 5659.5000000 2.6031301022 2.8723299503 0.2300000042 0.8562999964 5726.8320313
 5660.0000000 5660.0000000 2.5852999687 2.9685199261 0.2300000042 0.8529599905 5726.9072266
 5660.5000000 5660.5000000 2.5844099522 3.0650799274 0.2300000042 0.8574799895 5726.9824219
 5661.0000000 5661.0000000 2.5902199745 3.1966700554 0.2300000042 0.8724799752 5727.0566406
 5661.5000000 5661.5000000 2.5843300819 3.0606200695 0.2300000042 0.8610200286 5727.1313477
 5662.0000000 5662.0000000 2.5726599693 2.9151499271 0.2300000042 0.8562600017 5727.2050781
 5662.5000000 5662.5000000 2.5678300858 2.8528299332 0.2300000042 0.8531900048 5727.2788086
 5663.0000000 5663.0000000 2.5769801140 2.7674000263 0.2300000042 0.8531699777 5727.3520508
 5663.5000000 5663.5000000 2.5932700634 2.8174500465 0.2300000042 0.8591099977 5727.4257813
 5664.0000000 5664.0000000 2.6042699814 2.9221000671 0.2300000042 0.8796200156 5727.5000000
 5664.5000000 5664.5000000 2.6018900871 3.1041200161 0.2300000042 0.8737599850 5727.5737305
 5665.0000000 5665.0000000 2.5901200771 3.0835199356 0.2300000042 0.8745200038 5727.6474609
 5665.5000000 5665.5000000 2.5834701061 2.9296801090 0.2300000042 0.8851100206 5727.7207031
 5666.0000000 5666.0000000 2.5925900936 2.9817800522 0.2300000042 0.8923299909 5727.7934570
 5666.5000000 5666.5000000 2.6082398891 3.0489399433 0.2300000042 0.8703399897 5727.8666992
 5667.0000000 5667.0000000 2.6164400578 3.0547599792 0.2300000042 0.8559299707 5727.9394531
 5667.5000000 5667.5000000 2.6088600159 3.0501201153 0.2300000042 0.8587300181 5728.0131836
 5668.0000000 5668.0000000 2.5884499550 3.0458800793 0.2300000042 0.8811500072 5728.0864258
 5668.5000000 5668.5000000 2.5633499622 3.0453999043 0.2300000042 0.8845999837 5728.1586914
 5669.0000000 5669.0000000 2.5367200375 2.9542698860 0.2300000042 0.8917000294 5728.2299805
 5669.5000000 5669.5000000 2.5227699280 2.9246399403 0.2300000042 0.8758699894 5728.3007813
 5670.0000000 5670.0000000 2.5175600052 2.8453199863 0.2300000042 0.8384600282 5728.3706055
 5670.5000000 5670.5000000 2.5252799988 2.9347600937 0.2300000042 0.8187199831 5728.4404297
 5671.0000000 5671.0000000 2.5342800617 2.9855198860 0.2300000042 0.8559299707 5728.5102539
 5671.5000000 5671.5000000 2.5430600643 2.9955999851 0.2300000042 0.8541399837 5728.5795898
 5672.0000000 5672.0000000 2.5434000492 2.9956400394 0.2300000042 0.8619999886 5728.6494141
 5672.5000000 5672.5000000 2.5475800037 2.9143300056 0.2300000042 0.8677700162 5728.7192383
 5673.0000000 5673.0000000 2.5697100163 2.8805999756 0.2300000042 0.8705300093 5728.7890625
 5673.5000000 5673.5000000 2.6079499722 2.9385199547 0.2300000042 0.8677700162 5728.8593750
 5674.0000000 5674.0000000 2.6406900883 2.9631299973 0.2300000042 0.8555200100 5728.9301758
 5674.5000000 5674.5000000 2.6519000530 3.0165500641 0.2300000042 0.8345000148 5729.0024414
 5675.0000000 5675.0000000 2.6446299553 3.0148799419 0.2300000042 0.8225799799 5729.0742188
 5675.5000000 5675.5000000 2.6234900951 3.0060501099 0.2300000042 0.8191400170 5729.1455078
 5676.0000000 5676.0000000 2.5917899609 3.0401699543 0.2300000042 0.8240100145 5729.2167969
 5676.5000000 5676.5000000 2.5600700378 3.0172200203 0.2300000042 0.8308399916 5729.2866211
 5677.0000000 5677.0000000 2.5392498970 3.0461699963 0.2300000042 0.8488500118 5729.3554688
 5677.5000000 5677.5000000 2.5313000679 3.1475200653 0.2300000042 0.8801900148 5729.4233398
 5678.0000000 5678.0000000 2.5283699036 3.1872999668 0.2300000042 0.8748900294 5729.4916992
 5678.5000000 5678.5000000 2.5254399776 3.1185600758 0.2300000042 0.8738800287 5729.5590820
 5679.0000000 5679.0000000 2.5225100517 3.0720999241 0.2300000042 0.8728899956 5729.6269531
 5679.5000000 5679.5000000 2.5161399841 2.9556601048 0.2300000042 0.8762599826 5729.6938477
 5680.0000000 5680.0000000 2.5064399242 2.9135599136 0.2300000042 0.8524199724 5729.7607422
 5680.5000000 5680.5000000 2.4928700924 2.9460299015 0.2300000042 0.8557299972 5729.8271484
