# LAS format log file from PETREL
# Project units are specified as depth units
#==================================================================
~Version information
VERS.   2.0:
WRAP.   NO:
#==================================================================
~Well
STRT .m      5420.0000000 :
STOP .m      7109.0000000 :
STEP .m     0.50000000 :
NULL .        -999.250000 :
COMP.           : COMPANY
WELL.  423673457600   : WELL
FLD.            : FIELD
LOC.            : LOCATION
SRVC.           : SERVICE COMPANY
DATE.  2016-03-15 13:19:34   : Log Export Date {yyyy-MM-dd HH:mm:ss}
PROV.           : PROVINCE
UWI.      : UNIQUE WELL ID
API.            : API NUMBER
#==================================================================
~Curve
DEPT .m                   : DEPTH
DEPT .m                   : DEPT
RHOB .g/cm3               : RHOB
PEF .b/e                  : PEF
NPHI .m3/m3               : NPHI
GR .gAPI                  : GR
AT90 .ohm.m               : AT90
~Parameter
#==================================================================
~Ascii
# ...
 5855.0000000 5855.0000000 2.6182301044 3.0266900063 0.2300000042 0.8445000052 5743.7011719
 5855.5000000 5855.5000000 2.6171500683 3.0684499741 0.2300000042 0.8442400098 5743.7011719
 5856.0000000 5856.0000000 2.6161000729 3.0668799877 0.2300000042 0.8490999937 5743.7006836
 5856.5000000 5856.5000000 2.6150500774 3.0174899101 0.2300000042 0.8587999940 5743.6997070
 5857.0000000 5857.0000000 2.6145200729 3.0151600838 0.2300000042 0.8638399839 5743.6987305
 5857.5000000 5857.5000000 2.6138501167 2.9403800964 0.2300000042 0.8580600023 5743.6977539
 5858.0000000 5858.0000000 2.6147100925 2.9136400223 0.2300000042 0.8547499776 5743.6958008
 5858.5000000 5858.5000000 2.6192300320 2.9221799374 0.2300000042 0.8558999896 5743.6943359
 5859.0000000 5859.0000000 2.6291000843 3.0126800537 0.2300000042 0.8766300082 5743.6918945
 5859.5000000 5859.5000000 2.6419498920 3.0971000195 0.2300000042 0.8854799867 5743.6894531
 5860.0000000 5860.0000000 2.6486001015 3.1363499165 0.2300000042 0.8724799752 5743.6870117
 5860.5000000 5860.5000000 2.6426000595 3.1531701088 0.2300000042 0.8621799946 5743.6840820
 5861.0000000 5861.0000000 2.6237699986 3.1423599720 0.2300000042 0.8491399884 5743.6806641
 5861.5000000 5861.5000000 2.6069800854 3.1086599827 0.2300000042 0.8588100076 5743.6772461
 5862.0000000 5862.0000000 2.5963099003 3.0982799530 0.2300000042 0.8554999828 5743.6733398
 5862.5000000 5862.5000000 2.6031599045 3.0182800293 0.2300000042 0.8618900180 5743.6699219
 5863.0000000 5863.0000000 2.6088800430 2.8062200546 0.2300000042 0.8708199859 5743.6655273
 5863.5000000 5863.5000000 2.6163399220 2.7057099342 0.2300000042 0.8777499795 5743.6606445
 5864.0000000 5864.0000000 2.6020998955 2.6835799217 0.2300000042 0.8831899762 5743.6562500
 5864.5000000 5864.5000000 2.5862100124 2.7560400963 0.2300000042 0.8849099874 5743.6508789
 5865.0000000 5865.0000000 2.5768499374 2.9141900539 0.2300000042 0.8722500205 5743.6455078
 5865.5000000 5865.5000000 2.5850000381 3.0458500385 0.2300000042 0.8690900207 5743.6401367
 5866.0000000 5866.0000000 2.5959200859 3.1233599186 0.2300000042 0.8785399795 5743.6342773
 5866.5000000 5866.5000000 2.6000599861 3.0212099552 0.2300000042 0.8782399893 5743.6284180
 5867.0000000 5867.0000000 2.6057701111 2.8964099884 0.2300000042 0.8754799962 5743.6220703
 5867.5000000 5867.5000000 2.6202199459 2.8108599186 0.2300000042 0.8698400259 5743.6157227
 5868.0000000 5868.0000000 2.6333899498 2.8223099709 0.2300000042 0.8641600013 5743.6093750
 5868.5000000 5868.5000000 2.6450300217 2.8368399143 0.2300000042 0.8638299704 5743.6025391
 5869.0000000 5869.0000000 2.6455600262 2.9011399746 0.2300000042 0.8591499925 5743.5957031
 5869.5000000 5869.5000000 2.6505100727 2.9813599586 0.2300000042 0.8697000146 5743.5883789
 5870.0000000 5870.0000000 2.6383700371 3.0537800789 0.2300000042 0.8794900179 5743.5815430
 5870.5000000 5870.5000000 2.6234900951 2.9621400833 0.2300000042 0.8865600228 5743.5742188
 5871.0000000 5871.0000000 2.6122601032 2.9194200039 0.2300000042 0.8831300139 5743.5668945
 5871.5000000 5871.5000000 2.6283500195 2.8724699020 0.2300000042 0.8921200037 5743.5595703
 5872.0000000 5872.0000000 2.6657400131 2.8963201046 0.2300000042 0.8950300217 5743.5517578
 5872.5000000 5872.5000000 2.6956200600 2.9730598927 0.2300000042 0.8957099915 5743.5434570
 5873.0000000 5873.0000000 2.7114500999 3.0253899097 0.2300000042 0.8834900260 5743.5356445
 5873.5000000 5873.5000000 2.7075099945 3.1051900387 0.2300000042 0.8731200099 5743.5273438
 5874.0000000 5874.0000000 2.6982400417 3.0146000385 0.2300000042 0.8726400137 5743.5185547
 5874.5000000 5874.5000000 2.6703200340 2.9920599461 0.2300000042 0.8788499832 5743.5102539
 5875.0000000 5875.0000000 2.6348900795 2.9293599129 0.2300000042 0.8785499930 5743.5019531
 5875.5000000 5875.5000000 2.6077899933 2.9122800827 0.2300000042 0.8861700296 5743.4931641
 5876.0000000 5876.0000000 2.6177999973 2.9215900898 0.2300000042 0.8927599788 5743.4843750
 5876.5000000 5876.5000000 2.6533100605 2.9437799454 0.2300000042 0.8880699873 5743.4755859
 5877.0000000 5877.0000000 2.6912000179 2.9714798927 0.2300000042 0.8724099994 5743.4663086
 5877.5000000 5877.5000000 2.6937201023 2.9730000496 0.2300000042 0.8724099994 5743.4570313
 5878.0000000 5878.0000000 2.6696100235 2.9936599731 0.2300000042 0.8697000146 5743.4472656
 5878.5000000 5878.5000000 2.6408100128 3.0544800758 0.2300000042 0.8701199889 5743.4375000
 5879.0000000 5879.0000000 2.6444499493 3.0969998837 0.2300000042 0.8766099811 5743.4277344
 5879.5000000 5879.5000000 2.6710500717 3.1164400578 0.2300000042 0.8766099811 5743.4179688
 5880.0000000 5880.0000000 2.7001399994 3.0596399307 0.2300000042 0.8791599870 5743.4082031
 5880.5000000 5880.5000000 2.7017700672 2.9793999195 0.2300000042 0.8886799812 5743.3979492
 5881.0000000 5881.0000000 2.6806700230 2.9021999836 0.2300000042 0.8853700161 5743.3872070
 5881.5000000 5881.5000000 2.6434099674 2.8688199520 0.2300000042 0.8828499913 5743.3764648
 5882.0000000 5882.0000000 2.6249499321 2.8752100468 0.2300000042 0.8701400161 5743.3662109
 5882.5000000 5882.5000000 2.6280000210 2.8817799091 0.2300000042 0.8730599880 5743.3554688
 5883.0000000 5883.0000000 2.6505300999 2.8823599815 0.2300000042 0.8755999804 5743.3447266
 5883.5000000 5883.5000000 2.6539800167 2.8909199238 0.2300000042 0.8811200261 5743.3339844
 5884.0000000 5884.0000000 2.6462900639 2.9468200207 0.2300000042 0.8809400201 5743.3227539
 5884.5000000 5884.5000000 2.6332700253 3.0615200996 0.2300000042 0.8831099868 5743.3120117
 5885.0000000 5885.0000000 2.6356000900 3.1043400764 0.2300000042 0.8863300085 5743.3007813
 5885.5000000 5885.5000000 2.6372001171 3.0542600155 0.2300000042 0.8831099868 5743.2890625
 5886.0000000 5886.0000000 2.6366200447 3.0525200367 0.2300000042 0.8763099909 5743.2778320
 5886.5000000 5886.5000000 2.6293499470 2.9667699337 0.2300000042 0.8788499832 5743.2661133
 5887.0000000 5887.0000000 2.6226499081 2.9229800701 0.2300000042 0.8813800216 5743.2539063
 5887.5000000 5887.5000000 2.6216099262 2.9215900898 0.2300000042 0.8883100152 5743.2421875
 5888.0000000 5888.0000000 2.6352300644 2.9672200680 0.2300000042 0.8859300017 5743.2299805
 5888.5000000 5888.5000000 2.6622900963 2.9810400009 0.2300000042 0.8746100068 5743.2177734
 5889.0000000 5889.0000000 2.6938800812 2.9976599216 0.2300000042 0.8625400066 5743.2050781
 5889.5000000 5889.5000000 2.7181000710 3.0130300522 0.2300000042 0.8547800183 5743.1923828
 5890.0000000 5890.0000000 2.7374100685 2.9881699085 0.2300000042 0.8624200225 5743.1791992
 5890.5000000 5890.5000000 2.7423999310 3.0305500031 0.2300000042 0.8625400066 5743.1655273
 5891.0000000 5891.0000000 2.7332398891 3.0240499973 0.2300000042 0.8594599962 5743.1523438
 5891.5000000 5891.5000000 2.7007200718 2.9552299976 0.2300000042 0.8625800014 5743.1386719
 5892.0000000 5892.0000000 2.6691401005 2.9122200012 0.2300000042 0.8516200185 5743.1250000
 5892.5000000 5892.5000000 2.6337699890 2.8153800964 0.2300000042 0.8563799858 5743.1113281
 5893.0000000 5893.0000000 2.6101400852 2.8071899414 0.2300000042 0.8698400259 5743.0981445
 5893.5000000 5893.5000000 2.5911099911 2.8691198826 0.2300000042 0.8884800076 5743.0844727
 5894.0000000 5894.0000000 2.5906400681 2.8895099163 0.2300000042 0.8980900049 5743.0708008
 5894.5000000 5894.5000000 2.5983600616 3.0179800987 0.2300000042 0.8988800049 5743.0576172
 5895.0000000 5895.0000000 2.6154499054 3.0801699162 0.2300000042 0.8863300085 5743.0434570
 5895.5000000 5895.5000000 2.6456499100 3.1401400566 0.2300000042 0.8745999932 5743.0292969
 5896.0000000 5896.0000000 2.6902399063 3.0828800201 0.2300000042 0.8763099909 5743.0151367
 5896.5000000 5896.5000000 2.7289600372 2.9227600098 0.2300000042 0.8772400022 5743.0004883
 5897.0000000 5897.0000000 2.7446699142 2.8899400234 0.2300000042 0.8733100295 5742.9853516
 5897.5000000 5897.5000000 2.7383399010 2.9225299358 0.2300000042 0.8536000252 5742.9697266
 5898.0000000 5898.0000000 2.7242898941 3.0942499638 0.2300000042 0.8311499953 5742.9541016
