# LAS format log file from PETREL
# Project units are specified as depth units
#==================================================================
~Version information
VERS.   2.0:
WRAP.   NO:
#==================================================================
~Well
STRT .m      5420.0000000 :
STOP .m      7109.0000000 :
STEP .m     0.50000000 :
NULL .        -999.250000 :
COMP.           : COMPANY
WELL.  423673457600   : WELL
FLD.            : FIELD
LOC.            : LOCATION
SRVC.           : SERVICE COMPANY
DATE.  2016-03-15 13:19:34   : Log Export Date {yyyy-MM-dd HH:mm:ss}
PROV.           : PROVINCE
UWI.      : UNIQUE WELL ID
API.            : API NUMBER
#==================================================================
~Curve
DEPT .m                   : DEPTH
DEPT .m                   : DEPT
RHOB .g/cm3               : RHOB
PEF .b/e                  : PEF
NPHI .m3/m3               : NPHI
GR .gAPI                  : GR
AT90 .ohm.m               : AT90
~Parameter
#==================================================================
~Ascii
# ...
 6768.5000000 6768.5000000 2.8116500378 3.3673601151 0.2300000042 0.9178000093 5705.0170898
 6769.0000000 6769.0000000 2.8167600632 3.3705999851 0.2300000042 0.9140400290 5704.9907227
 6769.5000000 6769.5000000 2.8195800781 3.3315000534 0.2300000042 0.9109899998 5704.9638672
 6770.0000000 6770.0000000 2.8181300163 3.3366599083 0.2300000042 0.9164699912 5704.9370117
 6770.5000000 6770.5000000 2.8066599369 3.3386099339 0.2300000042 0.9191799760 5704.9096680
 6771.0000000 6771.0000000 2.7883601189 3.2935299873 0.2300000042 0.9186699986 5704.8828125
 6771.5000000 6771.5000000 2.7629799843 3.3321099281 0.2300000042 0.9191799760 5704.8559570
 6772.0000000 6772.0000000 2.7363998890 3.3251500130 0.2300000042 0.9164699912 5704.8291016
 6772.5000000 6772.5000000 2.7118999958 3.3160998821 0.2300000042 0.9245300293 5704.8022461
 6773.0000000 6773.0000000 2.6937699318 3.2227001190 0.2300000042 0.9374899864 5704.7763672
 6773.5000000 6773.5000000 2.6874299049 3.1565899849 0.2300000042 0.9652299881 5704.7500000
 6774.0000000 6774.0000000 2.6867799759 3.1581099033 0.2300000042 0.9549999833 5704.7236328
 6774.5000000 6774.5000000 2.7001700401 3.1667799950 0.2300000042 0.9549999833 5704.6977539
 6775.0000000 6775.0000000 2.7112500668 3.2110900879 0.2300000042 0.9523900151 5704.6708984
 6775.5000000 6775.5000000 2.7176198959 3.2323598862 0.2300000042 0.9374899864 5704.6445313
 6776.0000000 6776.0000000 2.7015299797 3.2229199409 0.2300000042 0.9497299790 5704.6171875
 6776.5000000 6776.5000000 2.6831200123 3.2109100819 0.2300000042 0.9497299790 5704.5908203
 6777.0000000 6777.0000000 2.6740000248 3.1452500820 0.2300000042 0.9426400065 5704.5639648
 6777.5000000 6777.5000000 2.6799099445 3.1388599873 0.2300000042 0.9422199726 5704.5371094
 6778.0000000 6778.0000000 2.6872799397 3.0925700665 0.2300000042 0.9391999841 5704.5102539
 6778.5000000 6778.5000000 2.6907799244 3.4356000423 0.2300000042 0.9423699975 5704.4833984
 6779.0000000 6779.0000000 2.6890900135 3.2895600796 0.2300000042 0.9429100156 5704.4560547
 6779.5000000 6779.5000000 2.6936299801 3.2024400234 0.2300000042 0.9315999746 5704.4291992
 6780.0000000 6780.0000000 2.6946599483 3.3415200710 0.2300000042 0.9187600017 5704.4013672
 6780.5000000 6780.5000000 2.6934900284 3.6158499718 0.2300000042 0.9204099774 5704.3740234
 6781.0000000 6781.0000000 2.6795198917 3.7421200275 0.2300000042 0.9247699976 5704.3466797
 6781.5000000 6781.5000000 2.6685400009 3.5989599228 0.2300000042 0.9417499900 5704.3193359
 6782.0000000 6782.0000000 2.6726100445 3.3676900864 0.2300000042 0.9434400201 5704.2915039
 6782.5000000 6782.5000000 2.6944100857 3.2417700291 0.2300000042 0.9312800169 5704.2641602
 6783.0000000 6783.0000000 2.7272200584 3.3535599709 0.2300000042 0.9151600003 5704.2363281
 6783.5000000 6783.5000000 2.7543499470 3.5918400288 0.2300000042 0.9073699713 5704.2080078
 6784.0000000 6784.0000000 2.7707300186 3.9008500576 0.2300000042 0.9093599916 5704.1791992
 6784.5000000 6784.5000000 2.7693099976 3.8433001041 0.2300000042 0.9363499880 5704.1503906
 6785.0000000 6785.0000000 2.7555699348 3.3649001122 0.2300000042 0.9487400055 5704.1215820
 6785.5000000 6785.5000000 2.7352199554 2.9236099720 0.2300000042 0.9687399864 5704.0927734
 6786.0000000 6786.0000000 2.7098100185 2.6444799900 0.2300000042 0.9833800197 5704.0639648
 6786.5000000 6786.5000000 2.6819698811 2.4568700790 0.2300000042 0.9763000011 5704.0356445
 6787.0000000 6787.0000000 2.6583900452 2.4197700024 0.2300000042 0.9715099931 5704.0073242
 6787.5000000 6787.5000000 2.6506700516 2.3883399963 0.2300000042 0.9610999823 5703.9790039
 6788.0000000 6788.0000000 2.6573700905 2.4201400280 0.2300000042 0.9616100192 5703.9506836
 6788.5000000 6788.5000000 2.6645998955 2.6263599396 0.2300000042 0.9695900083 5703.9223633
 6789.0000000 6789.0000000 2.6615300179 2.9440801144 0.2300000042 0.9720699787 5703.8940430
 6789.5000000 6789.5000000 2.6413600445 2.9091899395 0.2300000042 0.9664800167 5703.8657227
 6790.0000000 6790.0000000 2.6123399734 2.8495900631 0.2300000042 0.9613400102 5703.8374023
 6790.5000000 6790.5000000 2.6001300812 2.8781499863 0.2300000042 0.9466400146 5703.8090820
 6791.0000000 6791.0000000 2.6119599342 2.9428300858 0.2300000042 0.9506999850 5703.7812500
 6791.5000000 6791.5000000 2.6436500549 2.8660700321 0.2300000042 0.9461299777 5703.7529297
 6792.0000000 6792.0000000 2.6495699883 2.8311700821 0.2300000042 0.9518899918 5703.7241211
 6792.5000000 6792.5000000 2.6323499680 2.7389600277 0.2300000042 0.9587200284 5703.6953125
 6793.0000000 6793.0000000 2.6016900539 2.6584498882 0.2300000042 0.9613999724 5703.6665039
 6793.5000000 6793.5000000 2.5882699490 2.5508799553 0.2300000042 0.9616799951 5703.6381836
 6794.0000000 6794.0000000 2.6045401096 2.5297598839 0.2300000042 0.9574099779 5703.6098633
 6794.5000000 6794.5000000 2.6356298923 2.4755198956 0.2300000042 0.9429699779 5703.5810547
 6795.0000000 6795.0000000 2.6656000614 2.5449700356 0.2300000042 0.9344900250 5703.5522461
 6795.5000000 6795.5000000 2.6708400249 2.5806601048 0.2300000042 0.9251800179 5703.5224609
 6796.0000000 6796.0000000 2.6679899693 2.7282900810 0.2300000042 0.9274899960 5703.4926758
 6796.5000000 6796.5000000 2.6782500744 2.6819601059 0.2300000042 0.9307699800 5703.4633789
 6797.0000000 6797.0000000 2.7096600533 2.7904798985 0.2300000042 0.9374200106 5703.4331055
 6797.5000000 6797.5000000 2.7398099899 2.7759199142 0.2300000042 0.9439200163 5703.4028320
 6798.0000000 6798.0000000 2.7419600487 2.8118100166 0.2300000042 0.9422600269 5703.3720703
 6798.5000000 6798.5000000 2.7111101151 2.7904601097 0.2300000042 0.9403600097 5703.3413086
 6799.0000000 6799.0000000 2.6764900684 2.7323501110 0.2300000042 0.9392499924 5703.3105469
 6799.5000000 6799.5000000 2.6704900265 2.7665801048 0.2300000042 0.9379299879 5703.2802734
 6800.0000000 6800.0000000 2.6938300133 2.8196101189 0.2300000042 0.9368600249 5703.2495117
 6800.5000000 6800.5000000 2.7229499817 2.8392798901 0.2300000042 0.9341700077 5703.2192383
 6801.0000000 6801.0000000 2.7248699665 2.8362400532 0.2300000042 0.9314600229 5703.1884766
 6801.5000000 6801.5000000 2.7135500908 2.8255898952 0.2300000042 0.9287400246 5703.1572266
 6802.0000000 6802.0000000 2.7040500641 2.8156099319 0.2300000042 0.9263200164 5703.1264648
 6802.5000000 6802.5000000 2.7165400982 2.8268399239 0.2300000042 0.9244899750 5703.0952148
 6803.0000000 6803.0000000 2.7376499176 2.8426499367 0.2300000042 0.9249699712 5703.0639648
 6803.5000000 6803.5000000 2.7597401142 2.8817300797 0.2300000042 0.9238899946 5703.0322266
 6804.0000000 6804.0000000 2.7699999809 2.8857700825 0.2300000042 0.9172700047 5703.0004883
 6804.5000000 6804.5000000 2.7663800716 2.8794999123 0.2300000042 0.9091899991 5702.9682617
 6805.0000000 6805.0000000 2.7485899925 2.9087901115 0.2300000042 0.9087700248 5702.9360352
 6805.5000000 6805.5000000 2.7307898998 3.0913701057 0.2300000042 0.9280499816 5702.9038086
 6806.0000000 6806.0000000 2.7187600136 3.1542000771 0.2300000042 0.9421499968 5702.8720703
 6806.5000000 6806.5000000 2.7075600624 2.9984500408 0.2300000042 0.9367600083 5702.8403320
 6807.0000000 6807.0000000 2.6934800148 2.7286200523 0.2300000042 0.9267500043 5702.8085938
 6807.5000000 6807.5000000 2.6870200634 2.5417499542 0.2300000042 0.9265000224 5702.7768555
 6808.0000000 6808.0000000 2.6867001057 2.5380299091 0.2300000042 0.9312800169 5702.7451172
 6808.5000000 6808.5000000 2.6872899532 2.7352700233 0.2300000042 0.9121900201 5702.7133789
 6809.0000000 6809.0000000 2.6854600906 2.8421700001 0.2300000042 0.8841000199 5702.6816406
 6809.5000000 6809.5000000 2.6836400032 2.7676200867 0.2300000042 0.8961099982 5702.6499023
 6810.0000000 6810.0000000 2.6818099022 2.6143898964 0.2300000042 0.9069200158 5702.6176758
 6810.5000000 6810.5000000 2.6799900532 2.5041399002 0.2300000042 0.9109500051 5702.5854492
 6811.0000000 6811.0000000 2.6781699657 2.5492401123 0.2300000042 0.9117199779 5702.5532227
 6811.5000000 6811.5000000 2.6760699749 2.7321999073 0.2300000042 0.8969799876 5702.5209961
