# LAS format log file from PETREL
# Project units are specified as depth units
#==================================================================
~Version information
VERS.   2.0:
WRAP.   NO:
#==================================================================
~Well
STRT .m      5420.0000000 :
STOP .m      7109.0000000 :
STEP .m     0.50000000 :
NULL .        -999.250000 :
COMP.           : COMPANY
WELL.  423673457600   : WELL
FLD.            : FIELD
LOC.            : LOCATION
SRVC.           : SERVICE COMPANY
DATE.  2016-03-15 13:19:34   : Log Export Date {yyyy-MM-dd HH:mm:ss}
PROV.           : PROVINCE
UWI.      : UNIQUE WELL ID
API.            : API NUMBER
#==================================================================
~Curve
DEPT .m                   : DEPTH
DEPT .m                   : DEPT
RHOB .g/cm3               : RHOB
PEF .b/e                  : PEF
NPHI .m3/m3               : NPHI
GR .gAPI                  : GR
AT90 .ohm.m               : AT90
~Parameter
#==================================================================
~Ascii
 5420.0000000 5420.0000000  -999.250000  -999.250000  -999.250000 1.0252699852  -999.250000
 5420.5000000 5420.5000000  -999.250000  -999.250000  -999.250000 1.0932500362  -999.250000
 5421.0000000 5421.0000000  -999.250000  -999.250000  -999.250000 1.0667799711  -999.250000
 5421.5000000 5421.5000000  -999.250000  -999.250000  -999.250000 1.0384900570  -999.250000
 5422.0000000 5422.0000000 2.3921899796 0.7248399854 0.2300000042 1.0004199743 5663.8652344
 5422.5000000 5422.5000000 2.3695600033 0.7703899741 0.2300000042 0.9599199891 5664.0712891
 5423.0000000 5423.0000000 2.3724400997 0.7876999974 0.2300000042 0.9571599960 5664.2749023
 5423.5000000 5423.5000000 2.3835399151 0.9267200232 0.2300000042 0.9503300190 5664.4775391
 5424.0000000 5424.0000000 2.4079198837 1.1461700201 0.2300000042 0.9097200036 5664.6811523
 5424.5000000 5424.5000000 2.4473099709 1.4491699934 0.2300000042 0.8582400084 5664.8862305
 5425.0000000 5425.0000000 2.4909100533 1.7944699526 0.2300000042 0.8162199855 5665.0942383
 5425.5000000 5425.5000000 2.5307500362 2.1373100281 0.2300000042 0.8256099820 5665.3051758
 5426.0000000 5426.0000000 2.5701699257 2.3717999458 0.2300000042 0.8144299984 5665.5190430
 5426.5000000 5426.5000000 2.6033499241 2.4976799488 0.2300000042 0.8298199773 5665.7358398
 5427.0000000 5427.0000000 2.6215600967 2.6149499416 0.2300000042 0.8288999796 5665.9550781
 5427.5000000 5427.5000000 2.6212499142 2.7826600075 0.2300000042 0.8384799957 5666.1748047
 5428.0000000 5428.0000000 2.6091699600 2.8721499443 0.2300000042 0.8518000245 5666.3945313
 5428.5000000 5428.5000000 2.5963699818 2.9413700104 0.2300000042 0.8578500152 5666.6123047
 5429.0000000 5429.0000000 2.5846700668 2.9710800648 0.2300000042 0.8609200120 5666.8281250
 5429.5000000 5429.5000000 2.5743501186 2.9734799862 0.2300000042 0.8591399789 5667.0429688
 5430.0000000 5430.0000000 2.5687599182 3.0131399632 0.2300000042 0.8716099858 5667.2563477
 5430.5000000 5430.5000000 2.5670700073 3.0087900162 0.2300000042 0.8793500066 5667.4682617
 5431.0000000 5431.0000000 2.5713500977 2.9670801163 0.2300000042 0.8881499767 5667.6796875
 5431.5000000 5431.5000000 2.5687301159 2.9193100929 0.2300000042 0.8721899986 5667.8911133
 5432.0000000 5432.0000000 2.5615200996 2.8614399433 0.2300000042 0.8476600051 5668.1020508
 5432.5000000 5432.5000000 2.5451800823 2.7712600231 0.2300000042 0.8416900039 5668.3115234
 5433.0000000 5433.0000000 2.5367000103 2.6691598892 0.2300000042 0.8526999950 5668.5190430
 5433.5000000 5433.5000000 2.5334200859 2.8298199177 0.2300000042 0.8652300239 5668.7255859
 5434.0000000 5434.0000000 2.5404698849 2.8687999249 0.2300000042 0.8848999739 5668.9311523
 5434.5000000 5434.5000000 2.5375499725 2.8308300972 0.2300000042 0.8950300217 5669.1367188
 5435.0000000 5435.0000000 2.5260400772 2.7632598877 0.2300000042 0.9102200270 5669.3413086
 5435.5000000 5435.5000000 2.5068399906 2.8031098843 0.2300000042 0.9222300053 5669.5444336
 5436.0000000 5436.0000000 2.5016500950  -999.250000 0.2300000042 0.9135299921 5669.7460938
 5436.5000000 5436.5000000 2.5057299137 2.4721601009 0.2300000042 0.8814799786 5669.9462891
 5437.0000000 5437.0000000 2.5117199421 2.1648099422 0.2300000042 0.8713399768 5670.1464844
 5437.5000000 5437.5000000 2.5066299438 2.0327200890 0.2300000042 0.8652300239 5670.3461914
 5438.0000000 5438.0000000 2.4972400665 2.1282200813 0.2300000042 0.8907700181 5670.5454102
 5438.5000000 5438.5000000 2.4914100170 2.3282399178 0.2300000042 0.9284099936 5670.7436523
 5439.0000000 5439.0000000 2.4946498871 2.3973701000 0.2300000042 0.9294099808 5670.9404297
 5439.5000000 5439.5000000 2.5093500614 2.4303200245 0.2300000042 0.9154000282 5671.1372070
 5440.0000000 5440.0000000 2.5274999142 2.4532699585 0.2300000042 0.8966900110 5671.3339844
 5440.5000000 5440.5000000 2.5405299664 2.4916501045 0.2300000042 0.8933699727 5671.5322266
 5441.0000000 5441.0000000 2.5399799347 2.5568199158 0.2300000042 0.8942700028 5671.7309570
 5441.5000000 5441.5000000 2.5327699184 2.5502800941 0.2300000042 0.8960000277 5671.9287109
 5442.0000000 5442.0000000 2.5300400257 2.5134100914 0.2300000042 0.8983500004 5672.1259766
 5442.5000000 5442.5000000 2.5374701023 2.5391800404 0.2300000042 0.8992000222 5672.3217773
 5443.0000000 5443.0000000 2.5443999767 2.6574800014 0.2300000042 0.9173799753 5672.5180664
 5443.5000000 5443.5000000 2.5380098820 2.8183000088 0.2300000042 0.9301499724 5672.7143555
 5444.0000000 5444.0000000 2.5149600506 2.8880400658 0.2300000042 0.9438499808 5672.9091797
 5444.5000000 5444.5000000 2.4894499779 2.7278299332 0.2300000042 0.9300199747 5673.1020508
 5445.0000000 5445.0000000 2.4704198837 2.2741301060 0.2300000042 0.9050999880 5673.2924805
 5445.5000000 5445.5000000 2.4662199020 1.9170199633 0.2300000042 0.8783299923 5673.4804688
 5446.0000000 5446.0000000 2.4809598923 1.8315800428 0.2300000042 0.8464599848 5673.6679688
 5446.5000000 5446.5000000 2.5146400928 2.0346100330 0.2300000042 0.8427900076 5673.8559570
 5447.0000000 5447.0000000 2.5569100380 2.3759400845 0.2300000042 0.8437299728 5674.0458984
 5447.5000000 5447.5000000 2.5874600410 2.6150701046 0.2300000042 0.8517900109 5674.2387695
 5448.0000000 5448.0000000 2.6033599377 2.8048300743 0.2300000042 0.8893300295 5674.4331055
 5448.5000000 5448.5000000 2.6037199497 2.8626699448 0.2300000042 0.8846799731 5674.6284180
 5449.0000000 5449.0000000 2.6042098999 2.8679099083 0.2300000042 0.8901000023 5674.8227539
 5449.5000000 5449.5000000 2.6066300869 2.8668699265 0.2300000042 0.8943300247 5675.0166016
 5450.0000000 5450.0000000 2.6163299084 2.8205199242 0.2300000042 0.8937299848 5675.2104492
 5450.5000000 5450.5000000 2.6161599159 2.7814199924 0.2300000042 0.8812100291 5675.4042969
 5451.0000000 5451.0000000 2.6019899845 2.7561600208 0.2300000042 0.8729400039 5675.5971680
 5451.5000000 5451.5000000 2.5736000538 2.7171700001 0.2300000042 0.8715400100 5675.7890625
 5452.0000000 5452.0000000 2.5551600456 2.6854300499 0.2300000042 0.8715400100 5675.9780273
 5452.5000000 5452.5000000 2.5512900352 2.6790099144 0.2300000042 0.8658699989 5676.1650391
 5453.0000000 5453.0000000 2.5591399670 2.6821401119 0.2300000042 0.8688799739 5676.3510742
 5453.5000000 5453.5000000 2.5607099533 2.6487400532 0.2300000042 0.8744699955 5676.5375977
 5454.0000000 5454.0000000 2.5556700230 2.6104500294 0.2300000042 0.8740900159 5676.7236328
 5454.5000000 5454.5000000 2.5526299477 2.6097800732 0.2300000042 0.8715000153 5676.9086914
 5455.0000000 5455.0000000 2.5552899837 2.6050300598 0.2300000042 0.8718299866 5677.0927734
 5455.5000000 5455.5000000 2.5639100075 2.5814299583 0.2300000042 0.8687099814 5677.2773438
 5456.0000000 5456.0000000 2.5719599724 2.5947599411 0.2300000042 0.8684099913 5677.4619141
 5456.5000000 5456.5000000 2.5832600594 2.6182301044 0.2300000042 0.8737300038 5677.6464844
 5457.0000000 5457.0000000 2.5955700874 2.6639199257 0.2300000042 0.8711799979 5677.8315430
 5457.5000000 5457.5000000 2.6067299843 2.6712601185 0.2300000042 0.8754600286 5678.0166016
 5458.0000000 5458.0000000 2.6141500473 2.6647500992 0.2300000042 0.8781700134 5678.2021484
 5458.5000000 5458.5000000 2.6188600063 2.7457699776 0.2300000042 0.8688799739 5678.3876953
 5459.0000000 5459.0000000 2.6231501102 2.7618100643 0.2300000042 0.8788499832 5678.5732422
 5459.5000000 5459.5000000 2.6274399757 2.7637898922 0.2300000042 0.8873999715 5678.7592773
 5460.0000000 5460.0000000 2.6317300797 2.7666499615 0.2300000042 0.8955399990 5678.9443359
 5460.5000000 5460.5000000 2.6360199451 2.6913099289 0.2300000042 0.8983299732 5679.1293945
 5461.0000000 5461.0000000 2.6403100491 2.7153599262 0.2300000042 0.8866500258 5679.3144531
 5461.5000000 5461.5000000 2.6405899525 2.7069599628 0.2300000042 0.8929899931 5679.4995117
 5462.0000000 5462.0000000 2.6293299198 2.7104001045 0.2300000042 0.8875899911 5679.6835938
 5462.5000000 5462.5000000 2.6062800884 2.6951999664 0.2300000042 0.8866500258 5679.8666992
 5463.0000000 5463.0000000 2.5814299583 2.6401998997 0.2300000042 0.8810300231 5680.0483398
