# LAS format log file from PETREL
# Project units are specified as depth units
#==================================================================
~Version information
VERS.   2.0:
WRAP.   NO:
#==================================================================
~Well
STRT .m      5420.0000000 :
STOP .m      7109.0000000 :
STEP .m     0.50000000 :
NULL .        -999.250000 :
COMP.           : COMPANY
WELL.  423673457600   : WELL
FLD.            : FIELD
LOC.            : LOCATION
SRVC.           : SERVICE COMPANY
DATE.  2016-03-15 13:19:34   : Log Export Date {yyyy-MM-dd HH:mm:ss}
PROV.           : PROVINCE
UWI.      : UNIQUE WELL ID
API.            : API NUMBER
#==================================================================
~Curve
DEPT .m                   : DEPTH
DEPT .m                   : DEPT
RHOB .g/cm3               : RHOB
PEF .b/e                  : PEF
NPHI .m3/m3               : NPHI
GR .gAPI                  : GR
AT90 .ohm.m               : AT90
~Parameter
#==================================================================
~Ascii
# ...
 6986.0000000 6986.0000000 2.6213600636 3.7087099552 0.2300000042 0.8984400034 5691.9448242
 6986.5000000 6986.5000000 2.6553199291 3.9808599949 0.2300000042 0.8901900053 5691.9169922
 6987.0000000 6987.0000000 2.7026400566 4.1680397987 0.2300000042 0.8961200118 5691.8886719
 6987.5000000 6987.5000000 2.7470600605 4.1877598763 0.2300000042 0.8874400258 5691.8598633
 6988.0000000 6988.0000000 2.7701599598 4.2033200264 0.2300000042 0.8836799860 5691.8305664
 6988.5000000 6988.5000000 2.7771899700 4.2789301872 0.2300000042 0.8840699792 5691.8012695
 6989.0000000 6989.0000000 2.7725899220 4.2785100937 0.2300000042 0.8751599789 5691.7714844
 6989.5000000 6989.5000000 2.7591900826 4.1998000145 0.2300000042 0.8781999946 5691.7416992
 6990.0000000 6990.0000000 2.7355298996 4.2502799034 0.2300000042 0.8749499917 5691.7128906
 6990.5000000 6990.5000000 2.7207400799 4.3014798164 0.2300000042 0.8715999722 5691.6835938
 6991.0000000 6991.0000000 2.7267398834 4.2326102257 0.2300000042 0.8715699911 5691.6547852
 6991.5000000 6991.5000000 2.7496900558 4.2393198013 0.2300000042 0.8717799783 5691.6259766
 6992.0000000 6992.0000000 2.7769498825 4.2388300896 0.2300000042 0.8717799783 5691.5966797
 6992.5000000 6992.5000000 2.7931399345 4.2364602089 0.2300000042 0.8769500256 5691.5673828
 6993.0000000 6993.0000000 2.8012299538 4.3053002357 0.2300000042 0.8718100190 5691.5375977
 6993.5000000 6993.5000000 2.7877500057 4.3342900276 0.2300000042 0.8681499958 5691.5078125
 6994.0000000 6994.0000000 2.7624499798 4.3158898354 0.2300000042 0.8646699786 5691.4785156
 6994.5000000 6994.5000000 2.7361600399 4.2469100952 0.2300000042 0.8535100222 5691.4492188
 6995.0000000 6995.0000000 2.7196099758 4.2350702286 0.2300000042 0.8572000265 5691.4204102
 6995.5000000 6995.5000000 2.7022800446 4.1577701569 0.2300000042 0.8571400046 5691.3916016
 6996.0000000 6996.0000000 2.6741900444 4.0816798210 0.2300000042 0.8534899950 5691.3627930
 6996.5000000 6996.5000000 2.6504700184 4.0841598511 0.2300000042 0.8587300181 5691.3344727
 6997.0000000 6997.0000000 2.6447999477 4.0541100502 0.2300000042 0.8585600257 5691.3066406
 6997.5000000 6997.5000000 2.6580200195 4.0163202286 0.2300000042 0.8652300239 5691.2788086
 6998.0000000 6998.0000000 2.6774799824 4.0542402267 0.2300000042 0.8786299825 5691.2504883
 6998.5000000 6998.5000000 2.6969299316 4.0616497993 0.2300000042 0.8849800229 5691.2221680
 6999.0000000 6999.0000000 2.7163898945 4.0020098686 0.2300000042 0.8797100186 5691.1933594
 6999.5000000 6999.5000000 2.7327499390 3.9527599812 0.2300000042 0.8843899965 5691.1645508
 7000.0000000 7000.0000000 2.7369999886 3.8194799423 0.2300000042 0.8902000189 5691.1352539
 7000.5000000 7000.5000000 2.7305600643 3.7456700802 0.2300000042 0.8930000067 5691.1064453
 7001.0000000 7001.0000000 2.7168099880 3.6618299484 0.2300000042 0.9060599804 5691.0771484
 7001.5000000 7001.5000000 2.7114400864 3.5555300713 0.2300000042 0.8963900208 5691.0483398
 7002.0000000 7002.0000000 2.7094399929 3.5085999966 0.2300000042 0.8960599899 5691.0195313
 7002.5000000 7002.5000000 2.7141499519 3.5216100216 0.2300000042 0.8662499785 5690.9907227
 7003.0000000 7003.0000000 2.7209999561 3.5359699726 0.2300000042 0.8724700212 5690.9619141
 7003.5000000 7003.5000000 2.7280199528 3.5490100384 0.2300000042 0.8690500259 5690.9331055
 7004.0000000 7004.0000000 2.7291200161 3.5998299122 0.2300000042 0.8749700189 5690.9038086
 7004.5000000 7004.5000000 2.7248799801 3.6496601105 0.2300000042 0.8751299977 5690.8745117
 7005.0000000 7005.0000000 2.7209100723 3.5892500877 0.2300000042 0.8780999780 5690.8452148
 7005.5000000 7005.5000000 2.7265300751 3.5938699245 0.2300000042 0.8917700052 5690.8164063
 7006.0000000 7006.0000000 2.7256100178 3.5424699783 0.2300000042 0.8989999890 5690.7871094
 7006.5000000 7006.5000000 2.7254300117 3.5511500835 0.2300000042 0.9048200250 5690.7578125
 7007.0000000 7007.0000000 2.7106699944 3.5989100933 0.2300000042 0.9494199753 5690.7285156
 7007.5000000 7007.5000000 2.7101099491 3.6018400192 0.2300000042 0.9599300027 5690.6997070
 7008.0000000 7008.0000000 2.7118299007 3.5990700722 0.2300000042 0.9641100168 5690.6713867
 7008.5000000 7008.5000000 2.7149400711 3.5005099773 0.2300000042 0.9577100277 5690.6420898
 7009.0000000 7009.0000000 2.6923599243 3.4231901169 0.2300000042 0.9635900259 5690.6127930
 7009.5000000 7009.5000000 2.6518299580 3.4779798985 0.2300000042 0.9781900048 5690.5839844
 7010.0000000 7010.0000000 2.6154000759 3.5341300964 0.2300000042 1.0016100407 5690.5556641
 7010.5000000 7010.5000000 2.5994999409 3.5832099915 0.2300000042 1.0201699734 5690.5278320
 7011.0000000 7011.0000000 2.6045100689 3.4340701103 0.2300000042 1.0233500004 5690.5000000
 7011.5000000 7011.5000000 2.6161999702 3.0675499439 0.2300000042 1.0212999582 5690.4721680
 7012.0000000 7012.0000000 2.6269800663 2.8101000786 0.2300000042 1.0128699541 5690.4443359
 7012.5000000 7012.5000000 2.6332399845 2.7371900082 0.2300000042 1.0124800205 5690.4160156
 7013.0000000 7013.0000000 2.6355900764 2.8051600456 0.2300000042 1.0105999708 5690.3876953
 7013.5000000 7013.5000000 2.6476800442 2.9453399181 0.2300000042 1.0047700405 5690.3588867
 7014.0000000 7014.0000000 2.6598000526 2.8610498905 0.2300000042 0.9924100041 5690.3305664
 7014.5000000 7014.5000000 2.6566801071 2.7839500904 0.2300000042 0.9903299809 5690.3022461
 7015.0000000 7015.0000000 2.6182301044 2.7554299831 0.2300000042 0.9884600043 5690.2734375
 7015.5000000 7015.5000000 2.5691699982 2.7702000141 0.2300000042 0.9875500202 5690.2451172
 7016.0000000 7016.0000000 2.5474600792 2.7578899860 0.2300000042 0.9927899837 5690.2172852
 7016.5000000 7016.5000000 2.5683999062 2.7724199295 0.2300000042 0.9942399859 5690.1899414
 7017.0000000 7017.0000000 2.6085100174 2.8322401047 0.2300000042 0.9952300191 5690.1625977
 7017.5000000 7017.5000000 2.6357998848 2.8385701180 0.2300000042 0.9952300191 5690.1347656
 7018.0000000 7018.0000000 2.6453499794 2.8456299305 0.2300000042 0.9952300191 5690.1064453
 7018.5000000 7018.5000000 2.6552500725 2.8571801186 0.2300000042 0.9952300191 5690.0781250
 7019.0000000 7019.0000000 2.6775898933 2.8807899952 0.2300000042 0.9952300191 5690.0493164
 7019.5000000 7019.5000000 2.7055799961 2.8938100338 0.2300000042 0.9952300191 5690.0205078
 7020.0000000 7020.0000000 2.7239999771 2.8985800743 0.2300000042 0.9934099913 5689.9912109
 7020.5000000 7020.5000000 2.7253301144 2.8959200382 0.2300000042 0.9934099913 5689.9614258
 7021.0000000 7021.0000000 2.7153799534 2.8945999146 0.2300000042 0.9934099913 5689.9321289
 7021.5000000 7021.5000000 2.6937899590 2.8860299587 0.2300000042 0.9934099913 5689.9028320
 7022.0000000 7022.0000000 2.6788399220 2.8827700615 0.2300000042 0.9934099913 5689.8735352
 7022.5000000 7022.5000000 2.6750600338 2.8774399757 0.2300000042 0.9934099913 5689.8447266
 7023.0000000 7023.0000000 2.6839599609 2.8833899498 0.2300000042 0.9934099913 5689.8164063
 7023.5000000 7023.5000000 2.6881499290 2.8855700493 0.2300000042 0.9934099913 5689.7871094
 7024.0000000 7024.0000000 2.6777400970 2.8821198940 0.2300000042 0.9934099913 5689.7578125
 7024.5000000 7024.5000000 2.6592900753 2.8632199764 0.2300000042 0.9934099913 5689.7285156
 7025.0000000 7025.0000000 2.6343200207 2.8389599323 0.2300000042 0.9934099913 5689.6997070
 7025.5000000 7025.5000000 2.6119599342 2.8334701061 0.2300000042 0.9934099913 5689.6713867
 7026.0000000 7026.0000000 2.5936999321 2.8278200626 0.2300000042 0.9934099913 5689.6425781
 7026.5000000 7026.5000000 2.5872499943 2.8234899044 0.2300000042 0.9934099913 5689.6142578
 7027.0000000 7027.0000000 2.5906400681 2.8275699615 0.2300000042 0.9934099913 5689.5864258
 7027.5000000 7027.5000000 2.6037499905 2.8349900246 0.2300000042 0.9934099913 5689.5581055
 7028.0000000 7028.0000000 2.6186099052 2.8392999172 0.2300000042 0.9934099913 5689.5297852
 7028.5000000 7028.5000000 2.6265299320 2.8416600227 0.2300000042 0.9934099913 5689.5014648
 7029.0000000 7029.0000000 2.6215898991 2.8408999443 0.2300000042 0.9934099913 5689.4726563
