# LAS format log file from PETREL
# Project units are specified as depth units
#==================================================================
~Version information
VERS.   2.0:
WRAP.   NO:
#==================================================================
~Well
STRT .m      5420.0000000 :
STOP .m      7109.0000000 :
STEP .m     0.50000000 :
NULL .        -999.250000 :
COMP.           : COMPANY
WELL.  423673457600   : WELL
FLD.            : FIELD
LOC.            : LOCATION
SRVC.           : SERVICE COMPANY
DATE.  2016-03-15 13:19:34   : Log Export Date {yyyy-MM-dd HH:mm:ss}
PROV.           : PROVINCE
UWI.      : UNIQUE WELL ID
API.            : API NUMBER
#==================================================================
~Curve
DEPT .m                   : DEPTH
DEPT .m                   : DEPT
RHOB .g/cm3               : RHOB
PEF .b/e                  : PEF
NPHI .m3/m3               : NPHI
GR .gAPI                  : GR
AT90 .ohm.m               : AT90
~Parameter
#==================================================================
~Ascii
# ...
 6899.0000000 6899.0000000 2.6032700539 2.6216499805 0.2300000042 0.9631800056 5696.9741211
 6899.5000000 6899.5000000 2.6017000675 2.6201798916 0.2300000042 0.9656299949 5696.9443359
 6900.0000000 6900.0000000 2.6069900990 2.5598399639 0.2300000042 0.9631999731 5696.9140625
 6900.5000000 6900.5000000 2.6058800220 2.6252000332 0.2300000042 0.9680699706 5696.8842773
 6901.0000000 6901.0000000 2.5905098915 2.6670401096 0.2300000042 0.9725599885 5696.8540039
 6901.5000000 6901.5000000 2.5707700253 2.6505300999 0.2300000042 0.9700800180 5696.8247070
 6902.0000000 6902.0000000 2.5567200184 2.6430499554 0.2300000042 0.9700800180 5696.7949219
 6902.5000000 6902.5000000 2.5548999310 2.6435298920 0.2300000042 0.9700800180 5696.7656250
 6903.0000000 6903.0000000 2.5587399006 2.6447000504 0.2300000042 0.9725599885 5696.7363281
 6903.5000000 6903.5000000 2.5667500496 2.6541500092 0.2300000042 0.9639300108 5696.7075195
 6904.0000000 6904.0000000 2.5753901005 2.6568000317 0.2300000042 0.9632400274 5696.6777344
 6904.5000000 6904.5000000 2.5852398872 2.7008399963 0.2300000042 0.9626100063 5696.6484375
 6905.0000000 6905.0000000 2.5950999260 2.7781500816 0.2300000042 0.9580900073 5696.6186523
 6905.5000000 6905.5000000 2.6049499512 2.7825698853 0.2300000042 0.9613100290 5696.5888672
 6906.0000000 6906.0000000 2.6147999763 2.7478001118 0.2300000042 0.9560999870 5696.5595703
 6906.5000000 6906.5000000 2.6246600151 2.7562000751 0.2300000042 0.9606699944 5696.5292969
 6907.0000000 6907.0000000 2.6335999966 2.7636198997 0.2300000042 0.9625800252 5696.4995117
 6907.5000000 6907.5000000 2.6391100883 2.8444700241 0.2300000042 0.9626600146 5696.4692383
 6908.0000000 6908.0000000 2.6361999512 2.8602900505 0.2300000042 0.9504600167 5696.4394531
 6908.5000000 6908.5000000 2.6274900436 2.8915100098 0.2300000042 0.9482399821 5696.4091797
 6909.0000000 6909.0000000 2.6192100048 2.8891201019 0.2300000042 0.9538900256 5696.3793945
 6909.5000000 6909.5000000 2.6160500050 2.8480100632 0.2300000042 0.9566500187 5696.3491211
 6910.0000000 6910.0000000 2.6121900082 2.8835999966 0.2300000042 0.9579899907 5696.3198242
 6910.5000000 6910.5000000 2.6029999256 2.8752799034 0.2300000042 0.9607300162 5696.2900391
 6911.0000000 6911.0000000 2.5917799473 2.8636100292 0.2300000042 0.9653800130 5696.2602539
 6911.5000000 6911.5000000 2.5864799023 2.8976500034 0.2300000042 0.9682400227 5696.2309570
 6912.0000000 6912.0000000 2.5866100788 2.8585400581 0.2300000042 0.9720500112 5696.2016602
 6912.5000000 6912.5000000 2.5936601162 2.8089001179 0.2300000042 0.9720000029 5696.1723633
 6913.0000000 6913.0000000 2.6011500359 2.7058598995 0.2300000042 0.9697099924 5696.1430664
 6913.5000000 6913.5000000 2.6062099934 2.6731600761 0.2300000042 0.9594200253 5696.1132813
 6914.0000000 6914.0000000 2.6065900326 2.7086799145 0.2300000042 0.9607099891 5696.0834961
 6914.5000000 6914.5000000 2.6098699570 2.7801198959 0.2300000042 0.9556900263 5696.0541992
 6915.0000000 6915.0000000 2.6265900135 2.8459599018 0.2300000042 0.9520800114 5696.0244141
 6915.5000000 6915.5000000 2.6495199203 2.9002499580 0.2300000042 0.9476699829 5695.9951172
 6916.0000000 6916.0000000 2.6686999798 2.9135000706 0.2300000042 0.9532200098 5695.9648438
 6916.5000000 6916.5000000 2.6712000370 2.9560101032 0.2300000042 0.9675999880 5695.9350586
 6917.0000000 6917.0000000 2.6545600891 3.0657598972 0.2300000042 0.9867600203 5695.9047852
 6917.5000000 6917.5000000 2.6252501011 3.1077899933 0.2300000042 1.0006599426 5695.8750000
 6918.0000000 6918.0000000 2.6016399860 3.2242999077 0.2300000042 1.0055299997 5695.8452148
 6918.5000000 6918.5000000 2.5984499454 3.0497999191 0.2300000042 0.9955000281 5695.8159180
 6919.0000000 6919.0000000 2.6160900593 3.1503300667 0.2300000042 1.0002399683 5695.7866211
 6919.5000000 6919.5000000 2.6294701099 3.1116700172 0.2300000042 0.9920600057 5695.7573242
 6920.0000000 6920.0000000 2.6291298866 3.0435099602 0.2300000042 1.0009000301 5695.7275391
 6920.5000000 6920.5000000 2.6122500896 3.0662600994 0.2300000042 1.0150799751 5695.6982422
 6921.0000000 6921.0000000 2.6041200161 2.8593800068 0.2300000042 1.0153199434 5695.6684570
 6921.5000000 6921.5000000 2.6023399830 2.6089200974 0.2300000042 1.0087800026 5695.6391602
 6922.0000000 6922.0000000 2.6065099239 2.3798398972 0.2300000042 1.0019999743 5695.6098633
 6922.5000000 6922.5000000 2.5975201130 2.3177099228 0.2300000042 0.9989399910 5695.5810547
 6923.0000000 6923.0000000 2.5878698826 2.4271099567 0.2300000042 0.9934599996 5695.5517578
 6923.5000000 6923.5000000 2.5809099674 2.4242799282 0.2300000042 0.9842399955 5695.5224609
 6924.0000000 6924.0000000 2.5886199474 2.3438599110 0.2300000042 0.9560499787 5695.4931641
 6924.5000000 6924.5000000 2.6050000191 2.3562200069 0.2300000042 0.9490600228 5695.4643555
 6925.0000000 6925.0000000 2.6198799610 2.5652298927 0.2300000042 0.9459499717 5695.4350586
 6925.5000000 6925.5000000 2.6224501133 2.7172799110 0.2300000042 0.9471399784 5695.4052734
 6926.0000000 6926.0000000 2.6131598949 2.8805599213 0.2300000042 0.9510700107 5695.3759766
 6926.5000000 6926.5000000 2.6109600067 3.1472499371 0.2300000042 0.9538900256 5695.3466797
 6927.0000000 6927.0000000 2.6228899956 3.3696799278 0.2300000042 0.9720500112 5695.3173828
 6927.5000000 6927.5000000 2.6380600929 3.5330300331 0.2300000042 0.9690200090 5695.2880859
 6928.0000000 6928.0000000 2.6402800083 3.5305099487 0.2300000042 0.9693599939 5695.2583008
 6928.5000000 6928.5000000 2.6324799061 3.4155499935 0.2300000042 0.9843099713 5695.2285156
 6929.0000000 6929.0000000 2.6310501099 3.0434501171 0.2300000042 1.0048700571 5695.1992188
 6929.5000000 6929.5000000 2.6438899040 2.7265999317 0.2300000042 1.0102499723 5695.1694336
 6930.0000000 6930.0000000 2.6589100361 2.9043400288 0.2300000042 1.0296800137 5695.1396484
 6930.5000000 6930.5000000 2.6608300209 3.0290400982 0.2300000042 1.0531799793 5695.1103516
 6931.0000000 6931.0000000 2.6392600536 3.0142800808 0.2300000042 1.0651199818 5695.0805664
 6931.5000000 6931.5000000 2.6109099388 2.7816400528 0.2300000042 1.0570600033 5695.0512695
 6932.0000000 6932.0000000 2.5860300064 2.5768499374 0.2300000042 1.0454299450 5695.0219727
 6932.5000000 6932.5000000 2.5782499313 2.4024600983 0.2300000042 1.0299199820 5694.9931641
 6933.0000000 6933.0000000 2.5770499706 2.4029400349 0.2300000042 1.0325599909 5694.9643555
 6933.5000000 6933.5000000 2.5831599236 2.1723101139 0.2300000042 1.0277099609 5694.9355469
 6934.0000000 6934.0000000 2.5934300423 2.1342298985 0.2300000042 1.0225100517 5694.9067383
 6934.5000000 6934.5000000 2.6058399677 2.1980600357 0.2300000042 1.0118399858 5694.8779297
 6935.0000000 6935.0000000 2.6046700478 2.2767701149 0.2300000042 0.9506300092 5694.8491211
 6935.5000000 6935.5000000 2.5908200741 2.3405098915 0.2300000042 0.9325399995 5694.8198242
 6936.0000000 6936.0000000 2.5742499828 2.4215500355 0.2300000042 0.9310700297 5694.7910156
 6936.5000000 6936.5000000 2.5786399841 2.6053700447 0.2300000042 0.9329000115 5694.7622070
 6937.0000000 6937.0000000 2.5974400043 2.8151700497 0.2300000042 0.9334499836 5694.7333984
 6937.5000000 6937.5000000 2.6173501015 2.9272298813 0.2300000042 0.9279099703 5694.7045898
 6938.0000000 6938.0000000 2.6276600361 3.0569999218 0.2300000042 0.9305899739 5694.6757813
 6938.5000000 6938.5000000 2.6295299530 3.0141699314 0.2300000042 0.9253000021 5694.6464844
 6939.0000000 6939.0000000 2.6323499680 2.9330899715 0.2300000042 0.9254400134 5694.6171875
 6939.5000000 6939.5000000 2.6311399937 2.8369998932 0.2300000042 0.9284600019 5694.5878906
 6940.0000000 6940.0000000 2.6304399967 2.8386299610 0.2300000042 0.9280499816 5694.5590820
 6940.5000000 6940.5000000 2.6335899830 2.8625199795 0.2300000042 0.9263100028 5694.5297852
 6941.0000000 6941.0000000 2.6440200806 2.9106199741 0.2300000042 0.9227799773 5694.5004883
 6941.5000000 6941.5000000 2.6555900574 2.9997599125 0.2300000042 0.9197000265 5694.4711914
 6942.0000000 6942.0000000 2.6548199654 3.0425701141 0.2300000042 0.9175699949 5694.4418945
