# LAS format log file from PETREL
# Project units are specified as depth units
#==================================================================
~Version information
VERS.   2.0:
WRAP.   NO:
#==================================================================
~Well
STRT .m      5420.0000000 :
STOP .m      7109.0000000 :
STEP .m     0.50000000 :
NULL .        -999.250000 :
COMP.           : COMPANY
WELL.  423673457600   : WELL
FLD.            : FIELD
LOC.            : LOCATION
SRVC.           : SERVICE COMPANY
DATE.  2016-03-15 13:19:34   : Log Export Date {yyyy-MM-dd HH:mm:ss}
PROV.           : PROVINCE
UWI.      : UNIQUE WELL ID
API.            : API NUMBER
#==================================================================
~Curve
DEPT .m                   : DEPTH
DEPT .m                   : DEPT
RHOB .g/cm3               : RHOB
PEF .b/e                  : PEF
NPHI .m3/m3               : NPHI
GR .gAPI                  : GR
AT90 .ohm.m               : AT90
~Parameter
#==================================================================
~Ascii
# ...
 6681.5000000 6681.5000000 2.6684501171 3.0875101089 0.2300000042 0.8501600027 5708.6108398
 6682.0000000 6682.0000000 2.6360900402 3.1183099747 0.2300000042 0.8435099721 5708.5903320
 6682.5000000 6682.5000000 2.5981700420 3.0562899113 0.2300000042 0.8436999917 5708.5703125
 6683.0000000 6683.0000000 2.5717000961 3.1715600491 0.2300000042 0.8591200113 5708.5507813
 6683.5000000 6683.5000000 2.5631101131 3.2126801014 0.2300000042 0.8702300191 5708.5312500
 6684.0000000 6684.0000000 2.5658199787 3.0864500999 0.2300000042 0.8515300155 5708.5117188
 6684.5000000 6684.5000000 2.5667099953 3.0259399414 0.2300000042 0.8630599976 5708.4921875
 6685.0000000 6685.0000000 2.5635499954 2.9809999466 0.2300000042 0.8618900180 5708.4726563
 6685.5000000 6685.5000000 2.5585100651 3.0156600475 0.2300000042 0.8619999886 5708.4531250
 6686.0000000 6686.0000000 2.5552899837 3.2762799263 0.2300000042 0.8448100090 5708.4340820
 6686.5000000 6686.5000000 2.5608100891 3.5273699760 0.2300000042 0.8272100091 5708.4145508
 6687.0000000 6687.0000000 2.5755999088 3.4414401054 0.2300000042 0.8206300139 5708.3950195
 6687.5000000 6687.5000000 2.5961499214 3.1135599613 0.2300000042 0.8302999735 5708.3754883
 6688.0000000 6688.0000000 2.5991199017 2.8965299129 0.2300000042 0.8269600272 5708.3559570
 6688.5000000 6688.5000000 2.5827898979 2.8828299046 0.2300000042 0.8447099924 5708.3364258
 6689.0000000 6689.0000000 2.5566599369 3.2058899403 0.2300000042 0.8559299707 5708.3173828
 6689.5000000 6689.5000000 2.5534300804 3.4653000832 0.2300000042 0.8388599753 5708.2983398
 6690.0000000 6690.0000000 2.5501999855 3.1987700462 0.2300000042 0.8374000192 5708.2792969
 6690.5000000 6690.5000000 2.5469601154 2.7904000282 0.2300000042 0.8252800107 5708.2602539
 6691.0000000 6691.0000000 2.5437300205 2.6278700829 0.2300000042 0.8311799765 5708.2412109
 6691.5000000 6691.5000000 2.5426800251 2.6764299870 0.2300000042 0.8396000266 5708.2221680
 6692.0000000 6692.0000000 2.5419199467 2.8416099548 0.2300000042 0.8447099924 5708.2031250
 6692.5000000 6692.5000000 2.5411698818 3.1448800564 0.2300000042 0.8769900203 5708.1840820
 6693.0000000 6693.0000000 2.5404200554 3.1868100166 0.2300000042 0.8800100088 5708.1650391
 6693.5000000 6693.5000000 2.5385301113 3.0545101166 0.2300000042 0.8588500023 5708.1464844
 6694.0000000 6694.0000000 2.5351700783 2.9454600811 0.2300000042 0.8601899743 5708.1279297
 6694.5000000 6694.5000000 2.5220301151 2.8888199329 0.2300000042 0.8281599879 5708.1093750
 6695.0000000 6695.0000000 2.5067100525 3.0124499798 0.2300000042 0.8154199719 5708.0903320
 6695.5000000 6695.5000000 2.4959900379 3.1282401085 0.2300000042 0.8077499866 5708.0717773
 6696.0000000 6696.0000000 2.4913599491 3.1231799126 0.2300000042 0.8067200184 5708.0537109
 6696.5000000 6696.5000000 2.4941899776 2.9955298901 0.2300000042 0.8225299716 5708.0356445
 6697.0000000 6697.0000000 2.5022499561 2.9449601173 0.2300000042 0.8352900147 5708.0175781
 6697.5000000 6697.5000000 2.5101900101 2.9559099674 0.2300000042 0.8420400023 5707.9990234
 6698.0000000 6698.0000000 2.5081501007 3.0154299736 0.2300000042 0.8435099721 5707.9809570
 6698.5000000 6698.5000000 2.4981200695 3.0466198921 0.2300000042 0.8468400240 5707.9628906
 6699.0000000 6699.0000000 2.4934298992 3.0393500328 0.2300000042 0.8485000134 5707.9448242
 6699.5000000 6699.5000000 2.5111100674 3.1483299732 0.2300000042 0.8585600257 5707.9262695
 6700.0000000 6700.0000000 2.5445199013 3.1921401024 0.2300000042 0.8640300035 5707.9082031
 6700.5000000 6700.5000000 2.5799601078 3.1452100277 0.2300000042 0.8694599867 5707.8896484
 6701.0000000 6701.0000000 2.6023299694 2.9809100628 0.2300000042 0.8755499721 5707.8710938
 6701.5000000 6701.5000000 2.6216499805 2.8300399780 0.2300000042 0.8788899779 5707.8520508
 6702.0000000 6702.0000000 2.6307199001 2.7321701050 0.2300000042 0.9018800259 5707.8330078
 6702.5000000 6702.5000000 2.6255300045 2.7602000237 0.2300000042 0.9095699787 5707.8139648
 6703.0000000 6703.0000000 2.5986499786 2.8392999172 0.2300000042 0.9005600214 5707.7949219
 6703.5000000 6703.5000000 2.5690000057 2.8665299416 0.2300000042 0.8984000087 5707.7763672
 6704.0000000 6704.0000000 2.5412800312 2.8731899261 0.2300000042 0.9077399969 5707.7578125
 6704.5000000 6704.5000000 2.5171699524 2.8446900845 0.2300000042 0.9149699807 5707.7397461
 6705.0000000 6705.0000000 2.4879899025 2.8501698971 0.2300000042 0.9164900184 5707.7211914
 6705.5000000 6705.5000000 2.4682900906 2.7525000572 0.2300000042 0.9143999815 5707.7036133
 6706.0000000 6706.0000000 2.4609498978 2.7103099823 0.2300000042 0.9119600058 5707.6860352
 6706.5000000 6706.5000000 2.4715299606 2.7582800388 0.2300000042 0.9203000069 5707.6679688
 6707.0000000 6707.0000000 2.4825699329 2.8468201160 0.2300000042 0.9221000075 5707.6503906
 6707.5000000 6707.5000000 2.4893898964 2.9941000938 0.2300000042 0.9212099910 5707.6328125
 6708.0000000 6708.0000000 2.4901399612 3.1680500507 0.2300000042 0.9204699993 5707.6147461
 6708.5000000 6708.5000000 2.4942998886 3.0863800049 0.2300000042 0.9355199933 5707.5971680
 6709.0000000 6709.0000000 2.5010399818 3.0984199047 0.2300000042 0.9381600022 5707.5791016
 6709.5000000 6709.5000000 2.5041499138 3.1067900658 0.2300000042 0.9351999760 5707.5615234
 6710.0000000 6710.0000000 2.5004200935 3.0218200684 0.2300000042 0.9285500050 5707.5439453
 6710.5000000 6710.5000000 2.4930500984 3.0236999989 0.2300000042 0.9290800095 5707.5258789
 6711.0000000 6711.0000000 2.4863600731 3.0678300858 0.2300000042 0.9363999963 5707.5083008
 6711.5000000 6711.5000000 2.4860699177 3.0634500980 0.2300000042 0.9470900297 5707.4907227
 6712.0000000 6712.0000000 2.5030000210 3.1069900990 0.2300000042 0.9406399727 5707.4736328
 6712.5000000 6712.5000000 2.5441100597 3.1902799606 0.2300000042 0.9427099824 5707.4560547
 6713.0000000 6713.0000000 2.6001200676 3.2225899696 0.2300000042 0.9598100185 5707.4379883
 6713.5000000 6713.5000000 2.6586599350 3.3373100758 0.2300000042 0.9575799704 5707.4199219
 6714.0000000 6714.0000000 2.6984701157 3.3671801090 0.2300000042 0.9562199712 5707.4013672
 6714.5000000 6714.5000000 2.7164199352 3.4160799980 0.2300000042 0.9570900202 5707.3823242
 6715.0000000 6715.0000000 2.7103400230 3.4590198994 0.2300000042 0.9448999763 5707.3632813
 6715.5000000 6715.5000000 2.7017600536 3.4104099274 0.2300000042 0.9316499829 5707.3442383
 6716.0000000 6716.0000000 2.6986100674 3.4096400738 0.2300000042 0.9264299870 5707.3256836
 6716.5000000 6716.5000000 2.7008600235 3.3824799061 0.2300000042 0.9102600217 5707.3071289
 6717.0000000 6717.0000000 2.6953299046 3.4618299007 0.2300000042 0.9091200233 5707.2885742
 6717.5000000 6717.5000000 2.6846098900 3.5618400574 0.2300000042 0.8888199925 5707.2700195
 6718.0000000 6718.0000000 2.6768200397 3.5573799610 0.2300000042 0.8671299815 5707.2509766
 6718.5000000 6718.5000000 2.6814999580 3.5644600391 0.2300000042 0.8875399828 5707.2324219
 6719.0000000 6719.0000000 2.6858999729 3.6231300831 0.2300000042 0.8949800134 5707.2138672
 6719.5000000 6719.5000000 2.6858100891 3.6848399639 0.2300000042 0.8955799937 5707.1953125
 6720.0000000 6720.0000000 2.6832900047 3.6324698925 0.2300000042 0.8903399706 5707.1767578
 6720.5000000 6720.5000000 2.6920900345 3.6354799271 0.2300000042 0.8932499886 5707.1582031
 6721.0000000 6721.0000000 2.7110199928 3.6404299736 0.2300000042 0.8989800215 5707.1396484
 6721.5000000 6721.5000000 2.7262101173 3.6957499981 0.2300000042 0.8901399970 5707.1210938
 6722.0000000 6722.0000000 2.7341299057 3.8456799984 0.2300000042 0.8816900253 5707.1025391
 6722.5000000 6722.5000000 2.7379300594 3.8518199921 0.2300000042 0.8706899881 5707.0839844
 6723.0000000 6723.0000000 2.7452399731 3.8572800159 0.2300000042 0.8740500212 5707.0649414
 6723.5000000 6723.5000000 2.7546100616 3.8572599888 0.2300000042 0.8642299771 5707.0463867
 6724.0000000 6724.0000000 2.7639899254 3.8596301079 0.2300000042 0.8704400063 5707.0278320
 6724.5000000 6724.5000000 2.7733600140 3.8658900261 0.2300000042 0.8636999726 5707.0087891
