# LAS format log file from PETREL
# Project units are specified as depth units
#==================================================================
~Version information
VERS.   2.0:
WRAP.   NO:
#==================================================================
~Well
STRT .m      5420.0000000 :
STOP .m      7109.0000000 :
STEP .m     0.50000000 :
NULL .        -999.250000 :
COMP.           : COMPANY
WELL.  423673457600   : WELL
FLD.            : FIELD
LOC.            : LOCATION
SRVC.           : SERVICE COMPANY
DATE.  2016-03-15 13:19:34   : Log Export Date {yyyy-MM-dd HH:mm:ss}
PROV.           : PROVINCE
UWI.      : UNIQUE WELL ID
API.            : API NUMBER
#==================================================================
~Curve
DEPT .m                   : DEPTH
DEPT .m                   : DEPT
RHOB .g/cm3               : RHOB
PEF .b/e                  : PEF
NPHI .m3/m3               : NPHI
GR .gAPI                  : GR
AT90 .ohm.m               : AT90
~Parameter
#==================================================================
~Ascii
# ...
 6551.0000000 6551.0000000 2.5925700665 2.7981600761 0.2300000042 0.8691599965 5714.7207031
 6551.5000000 6551.5000000 2.5624299049 2.9416201115 0.2300000042 0.8555399776 5714.6928711
 6552.0000000 6552.0000000 2.5376200676 3.0643200874 0.2300000042 0.8390899897 5714.6655273
 6552.5000000 6552.5000000 2.5373799801 2.9622399807 0.2300000042 0.8299800158 5714.6381836
 6553.0000000 6553.0000000 2.5613698959 2.9419300556 0.2300000042 0.8214300275 5714.6103516
 6553.5000000 6553.5000000 2.5943400860 2.9715399742 0.2300000042 0.8309299946 5714.5830078
 6554.0000000 6554.0000000 2.6120901108 2.9868400097 0.2300000042 0.8343799710 5714.5551758
 6554.5000000 6554.5000000 2.6174499989 2.9917800426 0.2300000042 0.8368600011 5714.5273438
 6555.0000000 6555.0000000 2.6203000546 2.9090700150 0.2300000042 0.8580899835 5714.4995117
 6555.5000000 6555.5000000 2.6237099171 2.8766000271 0.2300000042 0.8757900000 5714.4711914
 6556.0000000 6556.0000000 2.6210498810 2.9147899151 0.2300000042 0.8737499714 5714.4433594
 6556.5000000 6556.5000000 2.6068899632 2.9467799664 0.2300000042 0.8593999743 5714.4155273
 6557.0000000 6557.0000000 2.5931599140 2.9799299240 0.2300000042 0.8509500027 5714.3876953
 6557.5000000 6557.5000000 2.5875799656 2.9748799801 0.2300000042 0.8542400002 5714.3603516
 6558.0000000 6558.0000000 2.5929698944 2.9365499020 0.2300000042 0.8636999726 5714.3325195
 6558.5000000 6558.5000000 2.5969300270 2.9402201176 0.2300000042 0.8730800152 5714.3051758
 6559.0000000 6559.0000000 2.5931000710 2.9410800934 0.2300000042 0.8794000149 5714.2778320
 6559.5000000 6559.5000000 2.5801899433 2.9695999622 0.2300000042 0.8669000268 5714.2500000
 6560.0000000 6560.0000000 2.5688400269 2.9552500248 0.2300000042 0.8699200153 5714.2226563
 6560.5000000 6560.5000000 2.5607399940 2.9535799026 0.2300000042 0.8727099895 5714.1958008
 6561.0000000 6561.0000000 2.5510499477 2.9439399242 0.2300000042 0.8729100227 5714.1684570
 6561.5000000 6561.5000000 2.5394899845 2.9263999462 0.2300000042 0.8638399839 5714.1416016
 6562.0000000 6562.0000000 2.5265200138 2.9148800373 0.2300000042 0.8729100227 5714.1147461
 6562.5000000 6562.5000000 2.5189599991 3.0072200298 0.2300000042 0.8588500023 5714.0883789
 6563.0000000 6563.0000000 2.5114700794 2.9665300846 0.2300000042 0.8527200222 5714.0615234
 6563.5000000 6563.5000000 2.5085101128 2.9394099712 0.2300000042 0.8462700248 5714.0356445
 6564.0000000 6564.0000000 2.5126299858 2.8384599686 0.2300000042 0.8499000072 5714.0092773
 6564.5000000 6564.5000000 2.5187599659 2.7643599510 0.2300000042 0.8698499799 5713.9829102
 6565.0000000 6565.0000000 2.5214200020 2.7827799320 0.2300000042 0.8640400171 5713.9565430
 6565.5000000 6565.5000000 2.5224900246 2.9346699715 0.2300000042 0.8842499852 5713.9306641
 6566.0000000 6566.0000000 2.5347499847 2.9912600517 0.2300000042 0.9023699760 5713.9042969
 6566.5000000 6566.5000000 2.5500099659 2.8920900822 0.2300000042 0.8973900080 5713.8779297
 6567.0000000 6567.0000000 2.5476999283 2.8189399242 0.2300000042 0.8971800208 5713.8515625
 6567.5000000 6567.5000000 2.5225598812 2.8049600124 0.2300000042 0.8747500181 5713.8251953
 6568.0000000 6568.0000000 2.4974000454 2.9079999924 0.2300000042 0.8583400249 5713.7988281
 6568.5000000 6568.5000000 2.4913299084 2.9968400002 0.2300000042 0.8570100069 5713.7734375
 6569.0000000 6569.0000000 2.5063099861 2.8300600052 0.2300000042 0.8665300012 5713.7475586
 6569.5000000 6569.5000000 2.5269200802 2.6835401058 0.2300000042 0.8791599870 5713.7216797
 6570.0000000 6570.0000000 2.5447700024 2.6577301025 0.2300000042 0.8588899970 5713.6953125
 6570.5000000 6570.5000000 2.5547699928 2.7694900036 0.2300000042 0.8496699929 5713.6694336
 6571.0000000 6571.0000000 2.5531799793 2.9425399303 0.2300000042 0.8492500186 5713.6430664
 6571.5000000 6571.5000000 2.5521700382 2.9809100628 0.2300000042 0.8410099745 5713.6166992
 6572.0000000 6572.0000000 2.5500600338 2.9417800903 0.2300000042 0.8445900083 5713.5908203
 6572.5000000 6572.5000000 2.5527999401 2.8211600780 0.2300000042 0.8480100036 5713.5644531
 6573.0000000 6573.0000000 2.5499799252 2.8499200344 0.2300000042 0.8414400220 5713.5380859
 6573.5000000 6573.5000000 2.5539000034 2.7172698975 0.2300000042 0.8375099897 5713.5117188
 6574.0000000 6574.0000000 2.5739700794 2.6282498837 0.2300000042 0.8431199789 5713.4858398
 6574.5000000 6574.5000000 2.5979099274 2.4757499695 0.2300000042 0.8414599895 5713.4594727
 6575.0000000 6575.0000000 2.6056699753 2.4653999805 0.2300000042 0.8422200084 5713.4331055
 6575.5000000 6575.5000000 2.5780000687 2.6217799187 0.2300000042 0.8535400033 5713.4067383
 6576.0000000 6576.0000000 2.5416300297 2.7544100285 0.2300000042 0.8528199792 5713.3803711
 6576.5000000 6576.5000000 2.5143098831 2.7968900204 0.2300000042 0.8528299928 5713.3544922
 6577.0000000 6577.0000000 2.5157599449 2.7435200214 0.2300000042 0.8671000004 5713.3291016
 6577.5000000 6577.5000000 2.5335400105 2.8162999153 0.2300000042 0.8593800068 5713.3037109
 6578.0000000 6578.0000000 2.5562100410 2.8746199608 0.2300000042 0.8645099998 5713.2783203
 6578.5000000 6578.5000000 2.5653100014 2.8771600723 0.2300000042 0.8645099998 5713.2529297
 6579.0000000 6579.0000000 2.5589900017 2.8320200443 0.2300000042 0.8835499883 5713.2270508
 6579.5000000 6579.5000000 2.5443799496 2.7592799664 0.2300000042 0.8952500224 5713.2011719
 6580.0000000 6580.0000000 2.5326499939 2.7503399849 0.2300000042 0.8912199736 5713.1757813
 6580.5000000 6580.5000000 2.5259900093 2.7474300861 0.2300000042 0.8635299802 5713.1503906
 6581.0000000 6581.0000000 2.5254099369 2.8031299114 0.2300000042 0.8367699981 5713.1250000
 6581.5000000 6581.5000000 2.5256299973 2.8006699085 0.2300000042 0.8319000006 5713.0996094
 6582.0000000 6582.0000000 2.5261800289 2.7595100403 0.2300000042 0.8416200280 5713.0742188
 6582.5000000 6582.5000000 2.5365800858 2.7769699097 0.2300000042 0.8478400111 5713.0493164
 6583.0000000 6583.0000000 2.5518400669 2.7504498959 0.2300000042 0.8479899764 5713.0239258
 6583.5000000 6583.5000000 2.5749399662 2.7635900974 0.2300000042 0.8465999961 5712.9985352
 6584.0000000 6584.0000000 2.5820300579 2.7667100430 0.2300000042 0.8324000239 5712.9731445
 6584.5000000 6584.5000000 2.5879199505 2.7668399811 0.2300000042 0.8324300051 5712.9477539
 6585.0000000 6585.0000000 2.5856199265 2.7644100189 0.2300000042 0.8324300051 5712.9223633
 6585.5000000 6585.5000000 2.5844800472 2.8183400631 0.2300000042 0.8287100196 5712.8969727
 6586.0000000 6586.0000000 2.5771300793 2.8069000244 0.2300000042 0.8320400119 5712.8715820
 6586.5000000 6586.5000000 2.5705299377 2.8442599773 0.2300000042 0.8418099880 5712.8461914
 6587.0000000 6587.0000000 2.5707700253 2.7983200550 0.2300000042 0.8485800028 5712.8208008
 6587.5000000 6587.5000000 2.5828299522 2.7414600849 0.2300000042 0.8503800035 5712.7954102
 6588.0000000 6588.0000000 2.5942800045 2.7110199928 0.2300000042 0.8534500003 5712.7700195
 6588.5000000 6588.5000000 2.5910499096 2.6751999855 0.2300000042 0.8694599867 5712.7451172
 6589.0000000 6589.0000000 2.5635499954 2.6995799541 0.2300000042 0.8630300164 5712.7197266
 6589.5000000 6589.5000000 2.5227398872 2.7442200184 0.2300000042 0.8478000164 5712.6943359
 6590.0000000 6590.0000000 2.4871599674 2.7180299759 0.2300000042 0.8601700068 5712.6699219
 6590.5000000 6590.5000000 2.4643800259 2.7904798985 0.2300000042 0.8890900016 5712.6459961
 6591.0000000 6591.0000000 2.4526500702 2.8562800884 0.2300000042 0.8871200085 5712.6220703
 6591.5000000 6591.5000000 2.4436600208 2.8458800316 0.2300000042 0.8816000223 5712.5981445
 6592.0000000 6592.0000000 2.4346799850 2.7692298889 0.2300000042 0.8720800281 5712.5747070
 6592.5000000 6592.5000000 2.4256999493 2.6901199818 0.2300000042 0.8562999964 5712.5507813
 6593.0000000 6593.0000000 2.4167098999 2.6929500103 0.2300000042 0.8356500268 5712.5273438
 6593.5000000 6593.5000000 2.4077301025 2.7858800888 0.2300000042 0.8300600052 5712.5043945
 6594.0000000 6594.0000000 2.3987500668 2.8955199718 0.2300000042 0.8588799834 5712.4809570
