# LAS format log file from PETREL
# Project units are specified as depth units
#==================================================================
~Version information
VERS.   2.0:
WRAP.   NO:
#==================================================================
~Well
STRT .m      5420.0000000 :
STOP .m      7109.0000000 :
STEP .m     0.50000000 :
NULL .        -999.250000 :
COMP.           : COMPANY
WELL.  423673457600   : WELL
FLD.            : FIELD
LOC.            : LOCATION
SRVC.           : SERVICE COMPANY
DATE.  2016-03-15 13:19:34   : Log Export Date {yyyy-MM-dd HH:mm:ss}
PROV.           : PROVINCE
UWI.      : UNIQUE WELL ID
API.            : API NUMBER
#==================================================================
~Curve
DEPT .m                   : DEPTH
DEPT .m                   : DEPT
RHOB .g/cm3               : RHOB
PEF .b/e                  : PEF
NPHI .m3/m3               : NPHI
GR .gAPI                  : GR
AT90 .ohm.m               : AT90
~Parameter
#==================================================================
~Ascii
# ...
 5507.0000000 5507.0000000 2.5343699455 2.9395999908 0.2300000042 0.8277500272 5694.3056641
 5507.5000000 5507.5000000 2.5389299393 2.9426798820 0.2300000042 0.8327199817 5694.4541016
 5508.0000000 5508.0000000 2.5394001007 3.0226199627 0.2300000042 0.8271099925 5694.6025391
 5508.5000000 5508.5000000 2.5380098820 3.0422999859 0.2300000042 0.8252300024 5694.7509766
 5509.0000000 5509.0000000 2.5366098881 3.0357398987 0.2300000042 0.8217800260 5694.8989258
 5509.5000000 5509.5000000 2.5352199078 3.0377399921 0.2300000042 0.8217800260 5695.0463867
 5510.0000000 5510.0000000 2.5338299274 3.0384600163 0.2300000042 0.8182299733 5695.1938477
 5510.5000000 5510.5000000 2.5324399471 2.9752199650 0.2300000042 0.8291299939 5695.3413086
 5511.0000000 5511.0000000 2.5310399532 2.9761800766 0.2300000042 0.8257399797 5695.4877930
 5511.5000000 5511.5000000 2.5295801163 2.9765501022 0.2300000042 0.8206800222 5695.6347656
 5512.0000000 5512.0000000 2.5310599804 2.9747400284 0.2300000042 0.8273800015 5695.7807617
 5512.5000000 5512.5000000 2.5378499031 3.0372300148 0.2300000042 0.8252199888 5695.9272461
 5513.0000000 5513.0000000 2.5435199738 2.9964098930 0.2300000042 0.8238700032 5696.0737305
 5513.5000000 5513.5000000 2.5360701084 3.0280499458 0.2300000042 0.8113499880 5696.2202148
 5514.0000000 5514.0000000 2.5151100159 2.9543700218 0.2300000042 0.8136799932 5696.3662109
 5514.5000000 5514.5000000 2.4947500229 2.9041199684 0.2300000042 0.8122599721 5696.5107422
 5515.0000000 5515.0000000 2.4790101051 2.8998401165 0.2300000042 0.8107100129 5696.6542969
 5515.5000000 5515.5000000 2.4609200954 2.8501200676 0.2300000042 0.8163499832 5696.7963867
 5516.0000000 5516.0000000 2.4379799366 2.8298699856 0.2300000042 0.8197399974 5696.9370117
 5516.5000000 5516.5000000 2.4255800247 2.8518400192 0.2300000042 0.8243799806 5697.0766602
 5517.0000000 5517.0000000 2.4210000038 2.8833899498 0.2300000042 0.8240399957 5697.2153320
 5517.5000000 5517.5000000 2.4340701103 2.9932699203 0.2300000042 0.8110499978 5697.3530273
 5518.0000000 5518.0000000 2.4483599663 2.9244599342 0.2300000042 0.7964299917 5697.4912109
 5518.5000000 5518.5000000 2.4794800282 2.8854899406 0.2300000042 0.8073700070 5697.6303711
 5519.0000000 5519.0000000 2.4926900864 2.7427999973 0.2300000042 0.8240900040 5697.7709961
 5519.5000000 5519.5000000 2.4988999367 2.7307999134 0.2300000042 0.8387899995 5697.9116211
 5520.0000000 5520.0000000 2.4911398888 2.8220698833 0.2300000042 0.8432199955 5698.0522461
 5520.5000000 5520.5000000 2.4903500080 2.9032099247 0.2300000042 0.8209599853 5698.1923828
 5521.0000000 5521.0000000 2.4872601032 2.9072499275 0.2300000042 0.8106300235 5698.3325195
 5521.5000000 5521.5000000 2.4759500027 2.8633799553 0.2300000042 0.8077700138 5698.4716797
 5522.0000000 5522.0000000 2.4635300636 2.8117799759 0.2300000042 0.8201000094 5698.6098633
 5522.5000000 5522.5000000 2.4622299671 2.8427600861 0.2300000042 0.8263800144 5698.7470703
 5523.0000000 5523.0000000 2.4758000374 2.8880200386 0.2300000042 0.8342700005 5698.8842773
 5523.5000000 5523.5000000 2.4859600067 2.9344298840 0.2300000042 0.8340100050 5699.0214844
 5524.0000000 5524.0000000 2.4807701111 2.9538400173 0.2300000042 0.8255699873 5699.1596680
 5524.5000000 5524.5000000 2.4684400558 2.9448900223 0.2300000042 0.8187199831 5699.2963867
 5525.0000000 5525.0000000 2.4627699852 2.9206700325 0.2300000042 0.8188599944 5699.4326172
 5525.5000000 5525.5000000 2.4726400375 2.8869099617 0.2300000042 0.8260800242 5699.5678711
 5526.0000000 5526.0000000 2.4907000065 2.8937399387 0.2300000042 0.8311100006 5699.7036133
 5526.5000000 5526.5000000 2.5106999874 2.9538900852 0.2300000042 0.8308399916 5699.8403320
 5527.0000000 5527.0000000 2.5213000774 2.9656701088 0.2300000042 0.8274400234 5699.9775391
 5527.5000000 5527.5000000 2.5158200264 2.9328200817 0.2300000042 0.8226199746 5700.1152344
 5528.0000000 5528.0000000 2.5003299713 2.9222099781 0.2300000042 0.8345000148 5700.2519531
 5528.5000000 5528.5000000 2.4903600216 2.9129900932 0.2300000042 0.8344699740 5700.3876953
 5529.0000000 5529.0000000 2.5008800030 2.9151599407 0.2300000042 0.8489300013 5700.5229492
 5529.5000000 5529.5000000 2.5232698917 2.9626700878 0.2300000042 0.8455899954 5700.6582031
 5530.0000000 5530.0000000 2.5339100361 2.9667999744 0.2300000042 0.8407099843 5700.7944336
 5530.5000000 5530.5000000 2.5237998962 2.9227399826 0.2300000042 0.8327199817 5700.9301758
 5531.0000000 5531.0000000 2.4955298901 2.9029200077 0.2300000042 0.8158500195 5701.0659180
 5531.5000000 5531.5000000 2.4745299816 2.8562500477 0.2300000042 0.8162400126 5701.1992188
 5532.0000000 5532.0000000 2.4605300426 2.8486700058 0.2300000042 0.8247200251 5701.3315430
 5532.5000000 5532.5000000 2.4576399326 2.8453600407 0.2300000042 0.8314200044 5701.4628906
 5533.0000000 5533.0000000 2.4580800533 2.8817400932 0.2300000042 0.8475499749 5701.5932617
 5533.5000000 5533.5000000 2.4665598869 2.8890099525 0.2300000042 0.8458600044 5701.7236328
 5534.0000000 5534.0000000 2.4837899208 2.9026999474 0.2300000042 0.8458600044 5701.8544922
 5534.5000000 5534.5000000 2.5050699711 2.8822700977 0.2300000042 0.8508599997 5701.9853516
 5535.0000000 5535.0000000 2.5304598808 2.8584799767 0.2300000042 0.8524199724 5702.1171875
 5535.5000000 5535.5000000 2.5500199795 2.8731698990 0.2300000042 0.8491100073 5702.2500000
 5536.0000000 5536.0000000 2.5533099174 2.9553699493 0.2300000042 0.8489300013 5702.3837891
 5536.5000000 5536.5000000 2.5345199108 3.0045199394 0.2300000042 0.8457300067 5702.5175781
 5537.0000000 5537.0000000 2.5069200993 3.0320699215 0.2300000042 0.8490300179 5702.6499023
 5537.5000000 5537.5000000 2.5009799004 3.0273699760 0.2300000042 0.8489300013 5702.7802734
 5538.0000000 5538.0000000 2.5165200233 3.0406799316 0.2300000042 0.8488199711 5702.9101563
 5538.5000000 5538.5000000 2.5402901173 3.1038300991 0.2300000042 0.8468800187 5703.0405273
 5539.0000000 5539.0000000 2.5426299572 3.1372599602 0.2300000042 0.8399800062 5703.1713867
 5539.5000000 5539.5000000 2.5243101120 3.1466200352 0.2300000042 0.8294000030 5703.3027344
 5540.0000000 5540.0000000 2.5027699471 3.0352399349 0.2300000042 0.8366600275 5703.4326172
 5540.5000000 5540.5000000 2.4929299355 2.8099999428 0.2300000042 0.8347200155 5703.5610352
 5541.0000000 5541.0000000 2.5035800934 2.7054800987 0.2300000042 0.8245800138 5703.6884766
 5541.5000000 5541.5000000 2.5218501091 2.6533000469 0.2300000042 0.8219599724 5703.8164063
 5542.0000000 5542.0000000 2.5383999348 2.7749700546 0.2300000042 0.8224099874 5703.9448242
 5542.5000000 5542.5000000 2.5399100780 2.8275399208 0.2300000042 0.8498299718 5704.0737305
 5543.0000000 5543.0000000 2.5266499519 2.8516499996 0.2300000042 0.8446999788 5704.2026367
 5543.5000000 5543.5000000 2.5080699921 2.8399798870 0.2300000042 0.8508800268 5704.3300781
 5544.0000000 5544.0000000 2.4945600033 2.8315999508 0.2300000042 0.8412899971 5704.4565430
 5544.5000000 5544.5000000 2.4958701134 2.9033501148 0.2300000042 0.8243899941 5704.5820313
 5545.0000000 5545.0000000 2.5106899738 2.9493200779 0.2300000042 0.8223400116 5704.7075195
 5545.5000000 5545.5000000 2.5326800346 2.9650399685 0.2300000042 0.8257399797 5704.8330078
 5546.0000000 5546.0000000 2.5520401001 2.9413499832 0.2300000042 0.8158500195 5704.9594727
 5546.5000000 5546.5000000 2.5655400753 2.9624800682 0.2300000042 0.8106300235 5705.0864258
 5547.0000000 5547.0000000 2.5754699707 2.9793400764 0.2300000042 0.8106300235 5705.2138672
 5547.5000000 5547.5000000 2.5846099854 3.0340499878 0.2300000042 0.8119999766 5705.3417969
 5548.0000000 5548.0000000 2.5937600136 3.1446299553 0.2300000042 0.8111000061 5705.4692383
 5548.5000000 5548.5000000 2.6029000282 3.2335600853 0.2300000042 0.8206999898 5705.5971680
 5549.0000000 5549.0000000 2.6123600006 3.3290400505 0.2300000042 0.8320999742 5705.7250977
 5549.5000000 5549.5000000 2.6221499443 3.4999399185 0.2300000042 0.8385000229 5705.8530273
 5550.0000000 5550.0000000 2.6284000874 3.4047100544 0.2300000042 0.8389899731 5705.9814453
