# LAS format log file from PETREL
# Project units are specified as depth units
#==================================================================
~Version information
VERS.   2.0:
WRAP.   NO:
#==================================================================
~Well
STRT .m      5420.0000000 :
STOP .m      7109.0000000 :
STEP .m     0.50000000 :
NULL .        -999.250000 :
COMP.           : COMPANY
WELL.  423673457600   : WELL
FLD.            : FIELD
LOC.            : LOCATION
SRVC.           : SERVICE COMPANY
DATE.  2016-03-15 13:19:34   : Log Export Date {yyyy-MM-dd HH:mm:ss}
PROV.           : PROVINCE
UWI.      : UNIQUE WELL ID
API.            : API NUMBER
#==================================================================
~Curve
DEPT .m                   : DEPTH
DEPT .m                   : DEPT
RHOB .g/cm3               : RHOB
PEF .b/e                  : PEF
NPHI .m3/m3               : NPHI
GR .gAPI                  : GR
AT90 .ohm.m               : AT90
~Parameter
#==================================================================
~Ascii
# ...
 6377.0000000 6377.0000000 2.5398099422 3.0154299736 0.2300000042 0.8688399792 5725.2065430
 6377.5000000 6377.5000000 2.5378799438 2.8834700584 0.2300000042 0.8581100106 5725.1831055
 6378.0000000 6378.0000000 2.5394198895 2.8381800652 0.2300000042 0.8460100293 5725.1596680
 6378.5000000 6378.5000000 2.5493199825 2.9258899689 0.2300000042 0.8175500035 5725.1367188
 6379.0000000 6379.0000000 2.5555200577 3.0318899155 0.2300000042 0.8148199916 5725.1127930
 6379.5000000 6379.5000000 2.5508799553 3.1552700996 0.2300000042 0.8132299781 5725.0893555
 6380.0000000 6380.0000000 2.5335600376 3.0104000568 0.2300000042 0.8148199916 5725.0654297
 6380.5000000 6380.5000000 2.5202798843 2.8978900909 0.2300000042 0.8227000237 5725.0419922
 6381.0000000 6381.0000000 2.5203599930 2.7442998886 0.2300000042 0.8385000229 5725.0180664
 6381.5000000 6381.5000000 2.5266799927 2.6937201023 0.2300000042 0.8356299996 5724.9946289
 6382.0000000 6382.0000000 2.5273799896 2.7349600792 0.2300000042 0.8339099884 5724.9702148
 6382.5000000 6382.5000000 2.5213899612 2.7907600403 0.2300000042 0.8447899818 5724.9462891
 6383.0000000 6383.0000000 2.5181999207 2.8712699413 0.2300000042 0.8590899706 5724.9223633
 6383.5000000 6383.5000000 2.5178399086 2.9059801102 0.2300000042 0.8699200153 5724.8979492
 6384.0000000 6384.0000000 2.5126800537 2.8161098957 0.2300000042 0.8590099812 5724.8740234
 6384.5000000 6384.5000000 2.5038700104 2.8158099651 0.2300000042 0.8482000232 5724.8500977
 6385.0000000 6385.0000000 2.4989900589 2.7761099339 0.2300000042 0.8622599840 5724.8256836
 6385.5000000 6385.5000000 2.5049600601 2.8172299862 0.2300000042 0.8703799844 5724.8017578
 6386.0000000 6386.0000000 2.5115799904 2.8563699722 0.2300000042 0.8657500148 5724.7773438
 6386.5000000 6386.5000000 2.5145199299 2.8904900551 0.2300000042 0.8462600112 5724.7524414
 6387.0000000 6387.0000000 2.5116899014 2.8865199089 0.2300000042 0.8260400295 5724.7280273
 6387.5000000 6387.5000000 2.5062599182 2.8868501186 0.2300000042 0.8191900253 5724.7036133
 6388.0000000 6388.0000000 2.4988000393 2.9306299686 0.2300000042 0.8239899874 5724.6787109
 6388.5000000 6388.5000000 2.4880299568 2.8946299553 0.2300000042 0.8377599716 5724.6538086
 6389.0000000 6389.0000000 2.4812500477 2.8503301144 0.2300000042 0.8616300225 5724.6289063
 6389.5000000 6389.5000000 2.4811899662 2.8447699547 0.2300000042 0.8695300221 5724.6035156
 6390.0000000 6390.0000000 2.4878299236 2.7674798965 0.2300000042 0.8866900206 5724.5786133
 6390.5000000 6390.5000000 2.4978799820 2.7097299099 0.2300000042 0.8704299927 5724.5537109
 6391.0000000 6391.0000000 2.5030200481 2.6781299114 0.2300000042 0.8391799927 5724.5283203
 6391.5000000 6391.5000000 2.5049700737 2.6816198826 0.2300000042 0.8391199708 5724.5029297
 6392.0000000 6392.0000000 2.4983000755 2.7199599743 0.2300000042 0.8356500268 5724.4775391
 6392.5000000 6392.5000000 2.4918599129 2.8903501034 0.2300000042 0.8529599905 5724.4521484
 6393.0000000 6393.0000000 2.4909899235 2.9899799824 0.2300000042 0.8508999944 5724.4272461
 6393.5000000 6393.5000000 2.5008800030 2.8953900337 0.2300000042 0.8477399945 5724.4018555
 6394.0000000 6394.0000000 2.5140299797 2.7531099319 0.2300000042 0.8527100086 5724.3759766
 6394.5000000 6394.5000000 2.5227100849 2.6948499680 0.2300000042 0.8557999730 5724.3500977
 6395.0000000 6395.0000000 2.5236999989 2.6951999664 0.2300000042 0.8358600140 5724.3237305
 6395.5000000 6395.5000000 2.5239200592 2.8205299377 0.2300000042 0.8300799727 5724.2978516
 6396.0000000 6396.0000000 2.5254299641 2.8205800056 0.2300000042 0.8267199993 5724.2714844
 6396.5000000 6396.5000000 2.5265901089 2.7720499039 0.2300000042 0.8139500022 5724.2451172
 6397.0000000 6397.0000000 2.5304100513 2.7349100113 0.2300000042 0.8323199749 5724.2187500
 6397.5000000 6397.5000000 2.5385899544 2.7437899113 0.2300000042 0.8275200129 5724.1918945
 6398.0000000 6398.0000000 2.5485599041 2.8054199219 0.2300000042 0.8336200118 5724.1650391
 6398.5000000 6398.5000000 2.5508000851 2.8432600498 0.2300000042 0.8317099810 5724.1381836
 6399.0000000 6399.0000000 2.5432798862 2.8441400528 0.2300000042 0.8267300129 5724.1113281
 6399.5000000 6399.5000000 2.5366499424 2.7466499805 0.2300000042 0.8386999965 5724.0839844
 6400.0000000 6400.0000000 2.5353999138 2.7147800922 0.2300000042 0.8467599750 5724.0571289
 6400.5000000 6400.5000000 2.5393800735 2.6840100288 0.2300000042 0.8586999774 5724.0297852
 6401.0000000 6401.0000000 2.5459599495 2.6455199718 0.2300000042 0.8616399765 5724.0024414
 6401.5000000 6401.5000000 2.5538699627 2.6422400475 0.2300000042 0.8608300090 5723.9750977
 6402.0000000 6402.0000000 2.5606200695 2.6397299767 0.2300000042 0.8505399823 5723.9472656
 6402.5000000 6402.5000000 2.5582699776 2.6453900337 0.2300000042 0.8364800215 5723.9194336
 6403.0000000 6403.0000000 2.5496399403 2.7211799622 0.2300000042 0.8423500061 5723.8916016
 6403.5000000 6403.5000000 2.5418798923 2.8064000607 0.2300000042 0.8496199846 5723.8637695
 6404.0000000 6404.0000000 2.5468499660 2.8147399426 0.2300000042 0.8497200012 5723.8359375
 6404.5000000 6404.5000000 2.5520501137 2.8134400845 0.2300000042 0.8589400053 5723.8081055
 6405.0000000 6405.0000000 2.5518300533 2.8567500114 0.2300000042 0.8495799899 5723.7802734
 6405.5000000 6405.5000000 2.5363800526 2.9306199551 0.2300000042 0.8476499915 5723.7519531
 6406.0000000 6406.0000000 2.5260601044 2.9542999268 0.2300000042 0.8587300181 5723.7236328
 6406.5000000 6406.5000000 2.5195798874 2.9036800861 0.2300000042 0.8495100141 5723.6958008
 6407.0000000 6407.0000000 2.5178101063 2.9014599323 0.2300000042 0.8345599771 5723.6679688
 6407.5000000 6407.5000000 2.5093100071 2.8184399605 0.2300000042 0.8300600052 5723.6396484
 6408.0000000 6408.0000000 2.4989399910 2.8088800907 0.2300000042 0.8333799839 5723.6113281
 6408.5000000 6408.5000000 2.4845299721 2.7610599995 0.2300000042 0.8336499929 5723.5834961
 6409.0000000 6409.0000000 2.4671800137 2.7459399700 0.2300000042 0.8320199847 5723.5556641
 6409.5000000 6409.5000000 2.4508900642 2.7131500244 0.2300000042 0.8288699985 5723.5278320
 6410.0000000 6410.0000000 2.4521300793 2.6784300804 0.2300000042 0.8208699822 5723.4995117
 6410.5000000 6410.5000000 2.4706599712 2.6501901150 0.2300000042 0.8179399967 5723.4716797
 6411.0000000 6411.0000000 2.5011301041 2.6352701187 0.2300000042 0.8183699846 5723.4433594
 6411.5000000 6411.5000000 2.5206201077 2.6508800983 0.2300000042 0.8151100278 5723.4145508
 6412.0000000 6412.0000000 2.5295000076 2.6610100269 0.2300000042 0.8313699961 5723.3857422
 6412.5000000 6412.5000000 2.5206398964 2.6902899742 0.2300000042 0.8407999873 5723.3569336
 6413.0000000 6413.0000000 2.5128700733 2.6885800362 0.2300000042 0.8471699953 5723.3276367
 6413.5000000 6413.5000000 2.5035200119 2.7780599594 0.2300000042 0.8484500051 5723.2983398
 6414.0000000 6414.0000000 2.4992198944 2.8148999214 0.2300000042 0.8464199901 5723.2690430
 6414.5000000 6414.5000000 2.4916999340 2.8494999409 0.2300000042 0.8446000218 5723.2402344
 6415.0000000 6415.0000000 2.4954099655 2.8880000114 0.2300000042 0.8444200158 5723.2109375
 6415.5000000 6415.5000000 2.5118598938 2.9376399517 0.2300000042 0.8443999887 5723.1816406
 6416.0000000 6416.0000000 2.5405900478 2.9572401047 0.2300000042 0.8443999887 5723.1523438
 6416.5000000 6416.5000000 2.5699698925 2.9769899845 0.2300000042 0.8477799892 5723.1220703
 6417.0000000 6417.0000000 2.5984799862 2.8807098866 0.2300000042 0.8464199901 5723.0917969
 6417.5000000 6417.5000000 2.6271300316 2.7712199688 0.2300000042 0.8497999907 5723.0605469
 6418.0000000 6418.0000000 2.6562399864 2.6769399643 0.2300000042 0.8616899848 5723.0292969
 6418.5000000 6418.5000000 2.6860001087 2.7139499187 0.2300000042 0.8468800187 5722.9975586
 6419.0000000 6419.0000000 2.7060899734 2.9120099545 0.2300000042 0.8382300138 5722.9658203
 6419.5000000 6419.5000000 2.7071399689 3.0311300755 0.2300000042 0.8342300057 5722.9331055
 6420.0000000 6420.0000000 2.6718900204 3.0164499283 0.2300000042 0.8308399916 5722.9003906
