# LAS format log file from PETREL
# Project units are specified as depth units
#==================================================================
~Version information
VERS.   2.0:
WRAP.   NO:
#==================================================================
~Well
STRT .m      5420.0000000 :
STOP .m      7109.0000000 :
STEP .m     0.50000000 :
NULL .        -999.250000 :
COMP.           : COMPANY
WELL.  423673457600   : WELL
FLD.            : FIELD
LOC.            : LOCATION
SRVC.           : SERVICE COMPANY
DATE.  2016-03-15 13:19:34   : Log Export Date {yyyy-MM-dd HH:mm:ss}
PROV.           : PROVINCE
UWI.      : UNIQUE WELL ID
API.            : API NUMBER
#==================================================================
~Curve
DEPT .m                   : DEPTH
DEPT .m                   : DEPT
RHOB .g/cm3               : RHOB
PEF .b/e                  : PEF
NPHI .m3/m3               : NPHI
GR .gAPI                  : GR
AT90 .ohm.m               : AT90
~Parameter
#==================================================================
~Ascii
# ...
 6464.0000000 6464.0000000 2.5875499249 2.8888299465 0.2300000042 0.8635600209 5720.0244141
 6464.5000000 6464.5000000 2.5780899525 2.9145801067 0.2300000042 0.8528400064 5719.9912109
 6465.0000000 6465.0000000 2.5717899799 2.8664500713 0.2300000042 0.8432199955 5719.9584961
 6465.5000000 6465.5000000 2.5659799576 2.8605599403 0.2300000042 0.8416799903 5719.9262695
 6466.0000000 6466.0000000 2.5647699833 2.8211100101 0.2300000042 0.8465899825 5719.8935547
 6466.5000000 6466.5000000 2.5653998852 2.8197200298 0.2300000042 0.8450000286 5719.8608398
 6467.0000000 6467.0000000 2.5673599243 2.8559200764 0.2300000042 0.8465099931 5719.8286133
 6467.5000000 6467.5000000 2.5647199154 2.8953099251 0.2300000042 0.8621699810 5719.7958984
 6468.0000000 6468.0000000 2.5592699051 2.8216099739 0.2300000042 0.8619499803 5719.7631836
 6468.5000000 6468.5000000 2.5596799850 2.8016700745 0.2300000042 0.8731899858 5719.7314453
 6469.0000000 6469.0000000 2.5737800598 2.7326800823 0.2300000042 0.8691400290 5719.6992188
 6469.5000000 6469.5000000 2.5968101025 2.7776100636 0.2300000042 0.8554900289 5719.6665039
 6470.0000000 6470.0000000 2.6181099415 2.8256399632 0.2300000042 0.8567600250 5719.6337891
 6470.5000000 6470.5000000 2.6224699020 2.8927099705 0.2300000042 0.8625400066 5719.6010742
 6471.0000000 6471.0000000 2.6134200096 2.8975000381 0.2300000042 0.8781999946 5719.5678711
 6471.5000000 6471.5000000 2.5941898823 2.9767498970 0.2300000042 0.8821600080 5719.5351563
 6472.0000000 6472.0000000 2.5744299889 2.9622900486 0.2300000042 0.8792499900 5719.5024414
 6472.5000000 6472.5000000 2.5530900955 3.0052499771 0.2300000042 0.8659999967 5719.4702148
 6473.0000000 6473.0000000 2.5377399921 3.0298800468 0.2300000042 0.8527299762 5719.4379883
 6473.5000000 6473.5000000 2.5315198898 2.9633300304 0.2300000042 0.8510400057 5719.4062500
 6474.0000000 6474.0000000 2.5321700573 2.9640600681 0.2300000042 0.8428500295 5719.3750000
 6474.5000000 6474.5000000 2.5366899967 2.9217700958 0.2300000042 0.8582900167 5719.3432617
 6475.0000000 6475.0000000 2.5491900444 2.8493199348 0.2300000042 0.8712400198 5719.3115234
 6475.5000000 6475.5000000 2.5637600422 2.8211901188 0.2300000042 0.8748199940 5719.2797852
 6476.0000000 6476.0000000 2.5753800869 2.7687599659 0.2300000042 0.8989099860 5719.2475586
 6476.5000000 6476.5000000 2.5747299194 2.7481598854 0.2300000042 0.9048299789 5719.2153320
 6477.0000000 6477.0000000 2.5710899830 2.7485299110 0.2300000042 0.9201700091 5719.1831055
 6477.5000000 6477.5000000 2.5617299080 2.6788001060 0.2300000042 0.9087100029 5719.1508789
 6478.0000000 6478.0000000 2.5529301167 2.6721498966 0.2300000042 0.8819000125 5719.1191406
 6478.5000000 6478.5000000 2.5441501141 2.7269198895 0.2300000042 0.8774700165 5719.0878906
 6479.0000000 6479.0000000 2.5373699665 2.8194000721 0.2300000042 0.8889999986 5719.0561523
 6479.5000000 6479.5000000 2.5281100273 2.9298400879 0.2300000042 0.8658300042 5719.0244141
 6480.0000000 6480.0000000 2.5181100368 2.9161899090 0.2300000042 0.8539000154 5718.9931641
 6480.5000000 6480.5000000 2.5161900520 2.8739900589 0.2300000042 0.8766499758 5718.9619141
 6481.0000000 6481.0000000 2.5196700096 2.9709300995 0.2300000042 0.9033399820 5718.9306641
 6481.5000000 6481.5000000 2.5280499458 2.9950199127 0.2300000042 0.9378700256 5718.8994141
 6482.0000000 6482.0000000 2.5285398960 3.0265300274 0.2300000042 0.9478399754 5718.8681641
 6482.5000000 6482.5000000 2.5269200802 2.9927299023 0.2300000042 0.9394199848 5718.8369141
 6483.0000000 6483.0000000 2.5190799236 2.9114201069 0.2300000042 0.9376000166 5718.8056641
 6483.5000000 6483.5000000 2.5177700520 2.9077301025 0.2300000042 0.9426299930 5718.7749023
 6484.0000000 6484.0000000 2.5284500122 2.9046599865 0.2300000042 0.9322500229 5718.7436523
 6484.5000000 6484.5000000 2.5476200581 2.8597099781 0.2300000042 0.9076399803 5718.7124023
 6485.0000000 6485.0000000 2.5717499256 2.8015201092 0.2300000042 0.9168400168 5718.6811523
 6485.5000000 6485.5000000 2.5952200890 2.7491300106 0.2300000042 0.9530299902 5718.6494141
 6486.0000000 6486.0000000 2.6291298866 2.7924299240 0.2300000042 0.9749100208 5718.6176758
 6486.5000000 6486.5000000 2.6573801041 2.8940999508 0.2300000042 0.9956899881 5718.5859375
 6487.0000000 6487.0000000 2.6614699364 2.9286301136 0.2300000042 1.0089000463 5718.5532227
 6487.5000000 6487.5000000 2.6266899109 2.9905200005 0.2300000042 0.9944999814 5718.5205078
 6488.0000000 6488.0000000 2.5752100945 3.0482800007 0.2300000042 0.9764900208 5718.4882813
 6488.5000000 6488.5000000 2.5346000195 3.1010398865 0.2300000042 0.9479600191 5718.4570313
 6489.0000000 6489.0000000 2.5241498947 3.2251300812 0.2300000042 0.8886500001 5718.4262695
 6489.5000000 6489.5000000 2.5318100452 3.2364499569 0.2300000042 0.8611000180 5718.3955078
 6490.0000000 6490.0000000 2.5426099300 3.1892299652 0.2300000042 0.8482400179 5718.3647461
 6490.5000000 6490.5000000 2.5427401066 3.0482399464 0.2300000042 0.8394200206 5718.3334961
 6491.0000000 6491.0000000 2.5440099239 2.9763500690 0.2300000042 0.8500400186 5718.3027344
 6491.5000000 6491.5000000 2.5478000641 2.9342401028 0.2300000042 0.8582800031 5718.2719727
 6492.0000000 6492.0000000 2.5513999462 2.8585999012 0.2300000042 0.8516700268 5718.2412109
 6492.5000000 6492.5000000 2.5452399254 2.8102600574 0.2300000042 0.8651599884 5718.2104492
 6493.0000000 6493.0000000 2.5290200710 2.7401800156 0.2300000042 0.8712400198 5718.1791992
 6493.5000000 6493.5000000 2.5205099583 2.7334499359 0.2300000042 0.8717499971 5718.1489258
 6494.0000000 6494.0000000 2.5278499126 2.8308699131 0.2300000042 0.8573700190 5718.1186523
 6494.5000000 6494.5000000 2.5539999008 2.9317800999 0.2300000042 0.8652099967 5718.0878906
 6495.0000000 6495.0000000 2.5782299042 2.8778200150 0.2300000042 0.8678399920 5718.0571289
 6495.5000000 6495.5000000 2.5776998997 2.8173298836 0.2300000042 0.8705099821 5718.0258789
 6496.0000000 6496.0000000 2.5578300953 2.7288899422 0.2300000042 0.8652399778 5717.9946289
 6496.5000000 6496.5000000 2.5293300152 2.7070999146 0.2300000042 0.8519300222 5717.9638672
 6497.0000000 6497.0000000 2.5176401138 2.7296800613 0.2300000042 0.8411899805 5717.9331055
 6497.5000000 6497.5000000 2.5193200111 2.7287700176 0.2300000042 0.8463000059 5717.9028320
 6498.0000000 6498.0000000 2.5312199593 2.7981400490 0.2300000042 0.8706399798 5717.8725586
 6498.5000000 6498.5000000 2.5415298939 2.8556299210 0.2300000042 0.8935999870 5717.8417969
 6499.0000000 6499.0000000 2.5431599617 2.9076700211 0.2300000042 0.9082599878 5717.8115234
 6499.5000000 6499.5000000 2.5413599014 2.9177401066 0.2300000042 0.9111700058 5717.7812500
 6500.0000000 6500.0000000 2.5424799919 2.8900101185 0.2300000042 0.9125999808 5717.7504883
 6500.5000000 6500.5000000 2.5499799252 2.8966898918 0.2300000042 0.9132599831 5717.7202148
 6501.0000000 6501.0000000 2.5528299809 2.8537499905 0.2300000042 0.9043700099 5717.6899414
 6501.5000000 6501.5000000 2.5412700176 2.8183801174 0.2300000042 0.8891699910 5717.6591797
 6502.0000000 6502.0000000 2.5190401077 2.8170099258 0.2300000042 0.8810499907 5717.6289063
 6502.5000000 6502.5000000 2.5050499439 2.9341700077 0.2300000042 0.8898800015 5717.5986328
 6503.0000000 6503.0000000 2.5107901096 3.1793000698 0.2300000042 0.8799899817 5717.5688477
 6503.5000000 6503.5000000 2.5352001190 3.2050600052 0.2300000042 0.8838599920 5717.5385742
 6504.0000000 6504.0000000 2.5579400063 3.0880300999 0.2300000042 0.8773900270 5717.5087891
 6504.5000000 6504.5000000 2.5688500404 2.9896600246 0.2300000042 0.8812299967 5717.4785156
 6505.0000000 6505.0000000 2.5668001175 3.1652801037 0.2300000042 0.8595299721 5717.4477539
 6505.5000000 6505.5000000 2.5603299141 3.3115398884 0.2300000042 0.8449400067 5717.4174805
 6506.0000000 6506.0000000 2.5538699627 3.0251300335 0.2300000042 0.8616200089 5717.3867188
 6506.5000000 6506.5000000 2.5474100113 2.7204799652 0.2300000042 0.8663399816 5717.3564453
 6507.0000000 6507.0000000 2.5440800190 2.4343099594 0.2300000042 0.8639400005 5717.3266602
